,ISO2,ISO3,year,countries,ISO,hf_score,hf_quartile,pf_score,ef_score,asciiname,latitude,longitude,country code,population
2,AE,ARE,2019.0,United Arab Emirates,ARE,6.06,4.0,5.2,7.28,Umm al Qaywayn,25.56473,55.55517,AE,44411
3,AE,ARE,2019.0,United Arab Emirates,ARE,6.06,4.0,5.2,7.28,Ras al-Khaimah,25.78953,55.9432,AE,115949
4,AE,ARE,2019.0,United Arab Emirates,ARE,6.06,4.0,5.2,7.28,Khawr Fakkan,25.33132,56.34199,AE,33575
5,AE,ARE,2019.0,United Arab Emirates,ARE,6.06,4.0,5.2,7.28,Dubai,25.0657,55.17128,AE,1137347
6,AE,ARE,2019.0,United Arab Emirates,ARE,6.06,4.0,5.2,7.28,Dibba Al-Fujairah,25.59246,56.26176,AE,30000
7,AE,ARE,2019.0,United Arab Emirates,ARE,6.06,4.0,5.2,7.28,Dibba Al-Hisn,25.61955,56.27291,AE,26395
8,AE,ARE,2019.0,United Arab Emirates,ARE,6.06,4.0,5.2,7.28,Sharjah,25.33737,55.41206,AE,543733
9,AE,ARE,2019.0,United Arab Emirates,ARE,6.06,4.0,5.2,7.28,Ar Ruways,24.11028,52.73056,AE,16000
10,AE,ARE,2019.0,United Arab Emirates,ARE,6.06,4.0,5.2,7.28,Al Fujayrah,25.11641,56.34141,AE,62415
11,AE,ARE,2019.0,United Arab Emirates,ARE,6.06,4.0,5.2,7.28,Al Ain,24.19167,55.76056,AE,408733
12,AE,ARE,2019.0,United Arab Emirates,ARE,6.06,4.0,5.2,7.28,Ajman,25.41111,55.43504,AE,226172
13,AE,ARE,2019.0,United Arab Emirates,ARE,6.06,4.0,5.2,7.28,Adh Dhayd,25.28812,55.88157,AE,24716
14,AE,ARE,2019.0,United Arab Emirates,ARE,6.06,4.0,5.2,7.28,Abu Dhabi,24.46667,54.36667,AE,603492
208,AL,ALB,2019.0,Albania,ALB,8.14,2.0,8.38,7.81,Sarande,39.87556,20.00528,AL,15147
209,AL,ALB,2019.0,Albania,ALB,8.14,2.0,8.38,7.81,Kukes,42.07694,20.42194,AL,17832
210,AL,ALB,2019.0,Albania,ALB,8.14,2.0,8.38,7.81,Korce,40.61861,20.78083,AL,58259
211,AL,ALB,2019.0,Albania,ALB,8.14,2.0,8.38,7.81,Gjirokaster,40.07583,20.13889,AL,23437
212,AL,ALB,2019.0,Albania,ALB,8.14,2.0,8.38,7.81,Elbasan,41.1125,20.08222,AL,100903
213,AL,ALB,2019.0,Albania,ALB,8.14,2.0,8.38,7.81,Burrel,41.61028,20.00889,AL,15405
214,AL,ALB,2019.0,Albania,ALB,8.14,2.0,8.38,7.81,Vlore,40.46667,19.48972,AL,89546
215,AL,ALB,2019.0,Albania,ALB,8.14,2.0,8.38,7.81,Tirana,41.3275,19.81889,AL,374801
216,AL,ALB,2019.0,Albania,ALB,8.14,2.0,8.38,7.81,Shkoder,42.06828,19.51258,AL,88245
217,AL,ALB,2019.0,Albania,ALB,8.14,2.0,8.38,7.81,Patos Fshat,40.64278,19.65083,AL,22679
218,AL,ALB,2019.0,Albania,ALB,8.14,2.0,8.38,7.81,Lushnje,40.94194,19.705,AL,41469
219,AL,ALB,2019.0,Albania,ALB,8.14,2.0,8.38,7.81,Lezhe,41.78361,19.64361,AL,18695
220,AL,ALB,2019.0,Albania,ALB,8.14,2.0,8.38,7.81,Lac,41.63556,19.71306,AL,24825
221,AL,ALB,2019.0,Albania,ALB,8.14,2.0,8.38,7.81,Kucove,40.80028,19.91667,AL,18166
222,AL,ALB,2019.0,Albania,ALB,8.14,2.0,8.38,7.81,Kruje,41.50917,19.79278,AL,21286
223,AL,ALB,2019.0,Albania,ALB,8.14,2.0,8.38,7.81,Kavaje,41.18556,19.55694,AL,29354
224,AL,ALB,2019.0,Albania,ALB,8.14,2.0,8.38,7.81,Fier-Cifci,40.71667,19.56667,AL,60995
225,AL,ALB,2019.0,Albania,ALB,8.14,2.0,8.38,7.81,Fier,40.72389,19.55611,AL,56297
226,AL,ALB,2019.0,Albania,ALB,8.14,2.0,8.38,7.81,Durres,41.32306,19.44139,AL,122034
227,AL,ALB,2019.0,Albania,ALB,8.14,2.0,8.38,7.81,Berat,40.70583,19.95222,AL,46866
448,AM,ARM,2019.0,Armenia,ARM,8.2,1.0,8.32,8.03,Kapan,39.20755,46.40576,AM,33160
449,AM,ARM,2019.0,Armenia,ARM,8.2,1.0,8.32,8.03,Goris,39.51111,46.34168,AM,20379
450,AM,ARM,2019.0,Armenia,ARM,8.2,1.0,8.32,8.03,Hats'avan,39.46405,45.97047,AM,15208
451,AM,ARM,2019.0,Armenia,ARM,8.2,1.0,8.32,8.03,Artashat,39.96144,44.54447,AM,20562
452,AM,ARM,2019.0,Armenia,ARM,8.2,1.0,8.32,8.03,Ararat,39.83069,44.70569,AM,28832
453,AM,ARM,2019.0,Armenia,ARM,8.2,1.0,8.32,8.03,Yerevan,40.18111,44.51361,AM,1093485
454,AM,ARM,2019.0,Armenia,ARM,8.2,1.0,8.32,8.03,Ejmiatsin,40.16557,44.29462,AM,49513
455,AM,ARM,2019.0,Armenia,ARM,8.2,1.0,8.32,8.03,Step'anavan,41.00995,44.38531,AM,23782
456,AM,ARM,2019.0,Armenia,ARM,8.2,1.0,8.32,8.03,Spitak,40.83221,44.26731,AM,15059
457,AM,ARM,2019.0,Armenia,ARM,8.2,1.0,8.32,8.03,Sevan,40.5473,44.94171,AM,17083
458,AM,ARM,2019.0,Armenia,ARM,8.2,1.0,8.32,8.03,Masis,40.06542,44.41618,AM,18911
459,AM,ARM,2019.0,Armenia,ARM,8.2,1.0,8.32,8.03,Vanadzor,40.80456,44.4939,AM,101098
460,AM,ARM,2019.0,Armenia,ARM,8.2,1.0,8.32,8.03,Gavarr,40.35398,45.12386,AM,21680
461,AM,ARM,2019.0,Armenia,ARM,8.2,1.0,8.32,8.03,Hrazdan,40.49748,44.7662,AM,40795
462,AM,ARM,2019.0,Armenia,ARM,8.2,1.0,8.32,8.03,Armavir,40.15446,44.03815,AM,25963
463,AM,ARM,2019.0,Armenia,ARM,8.2,1.0,8.32,8.03,Gyumri,40.7942,43.84528,AM,148381
464,AM,ARM,2019.0,Armenia,ARM,8.2,1.0,8.32,8.03,Ashtarak,40.2991,44.36204,AM,18779
465,AM,ARM,2019.0,Armenia,ARM,8.2,1.0,8.32,8.03,Abovyan,40.27368,44.63348,AM,35673
664,AO,AGO,2019.0,Angola,AGO,6.09,4.0,6.5,5.5,Saurimo,-9.66078,20.39155,AO,40498
665,AO,AGO,2019.0,Angola,AGO,6.09,4.0,6.5,5.5,Lucapa,-8.41915,20.74466,AO,20115
666,AO,AGO,2019.0,Angola,AGO,6.09,4.0,6.5,5.5,Luau,-10.70727,22.22466,AO,18465
667,AO,AGO,2019.0,Angola,AGO,6.09,4.0,6.5,5.5,Uige,-7.60874,15.06131,AO,60008
668,AO,AGO,2019.0,Angola,AGO,6.09,4.0,6.5,5.5,Soio,-6.1349,12.36894,AO,67491
669,AO,AGO,2019.0,Angola,AGO,6.09,4.0,6.5,5.5,N'zeto,-7.23116,12.8666,AO,18352
670,AO,AGO,2019.0,Angola,AGO,6.09,4.0,6.5,5.5,N'dalatando,-9.29782,14.91162,AO,383100
671,AO,AGO,2019.0,Angola,AGO,6.09,4.0,6.5,5.5,Mbanza Congo,-6.26703,14.2401,AO,24220
672,AO,AGO,2019.0,Angola,AGO,6.09,4.0,6.5,5.5,Malanje,-9.54015,16.34096,AO,87046
673,AO,AGO,2019.0,Angola,AGO,6.09,4.0,6.5,5.5,Luanda,-8.83682,13.23432,AO,2776168
674,AO,AGO,2019.0,Angola,AGO,6.09,4.0,6.5,5.5,Caxito,-8.57848,13.66425,AO,28224
675,AO,AGO,2019.0,Angola,AGO,6.09,4.0,6.5,5.5,Cabinda,-5.55,12.2,AO,66020
676,AO,AGO,2019.0,Angola,AGO,6.09,4.0,6.5,5.5,Sumbe,-11.20605,13.84371,AO,33277
677,AO,AGO,2019.0,Angola,AGO,6.09,4.0,6.5,5.5,Namibe,-15.19611,12.15222,AO,80149
678,AO,AGO,2019.0,Angola,AGO,6.09,4.0,6.5,5.5,Menongue,-14.6585,17.69099,AO,32203
679,AO,AGO,2019.0,Angola,AGO,6.09,4.0,6.5,5.5,Luena,-11.78333,19.91667,AO,21115
680,AO,AGO,2019.0,Angola,AGO,6.09,4.0,6.5,5.5,Lubango,-14.91717,13.4925,AO,102541
681,AO,AGO,2019.0,Angola,AGO,6.09,4.0,6.5,5.5,Longonjo,-12.90667,15.25333,AO,24346
682,AO,AGO,2019.0,Angola,AGO,6.09,4.0,6.5,5.5,Lobito,-12.3644,13.53601,AO,207932
683,AO,AGO,2019.0,Angola,AGO,6.09,4.0,6.5,5.5,Cuito,-12.38333,16.93333,AO,113624
684,AO,AGO,2019.0,Angola,AGO,6.09,4.0,6.5,5.5,Huambo,-12.77611,15.73917,AO,226145
685,AO,AGO,2019.0,Angola,AGO,6.09,4.0,6.5,5.5,Catumbela,-12.43002,13.54677,AO,16977
686,AO,AGO,2019.0,Angola,AGO,6.09,4.0,6.5,5.5,Catabola,-12.15,17.28333,AO,18855
687,AO,AGO,2019.0,Angola,AGO,6.09,4.0,6.5,5.5,Camacupa,-12.01667,17.48333,AO,19150
688,AO,AGO,2019.0,Angola,AGO,6.09,4.0,6.5,5.5,Caluquembe,-13.78333,14.68333,AO,30300
689,AO,AGO,2019.0,Angola,AGO,6.09,4.0,6.5,5.5,Caala,-12.8525,15.56056,AO,21205
690,AO,AGO,2019.0,Angola,AGO,6.09,4.0,6.5,5.5,Benguela,-12.57626,13.40547,AO,151226
989,AR,ARG,2019.0,Argentina,ARG,7.38,2.0,8.73,5.5,Zarate,-34.09814,-59.02858,AR,88781
990,AR,ARG,2019.0,Argentina,ARG,7.38,2.0,8.73,5.5,Villa Ortuzar,-34.57973,-58.46829,AR,22500
991,AR,ARG,2019.0,Argentina,ARG,7.38,2.0,8.73,5.5,Villa Ocampo,-28.48752,-59.35515,AR,19101
992,AR,ARG,2019.0,Argentina,ARG,7.38,2.0,8.73,5.5,Villa Lugano,-34.67907,-58.47263,AR,114000
993,AR,ARG,2019.0,Argentina,ARG,7.38,2.0,8.73,5.5,Villaguay,-31.8653,-59.02689,AR,32027
994,AR,ARG,2019.0,Argentina,ARG,7.38,2.0,8.73,5.5,Villa Gesell,-37.26394,-56.97304,AR,23257
995,AR,ARG,2019.0,Argentina,ARG,7.38,2.0,8.73,5.5,Tigre,-34.42603,-58.57962,AR,31106
996,AR,ARG,2019.0,Argentina,ARG,7.38,2.0,8.73,5.5,Tandil,-37.32167,-59.13316,AR,104325
997,AR,ARG,2019.0,Argentina,ARG,7.38,2.0,8.73,5.5,San Vicente,-26.61667,-54.13333,AR,38247
998,AR,ARG,2019.0,Argentina,ARG,7.38,2.0,8.73,5.5,Santo Tome,-28.54939,-56.04077,AR,22634
999,AR,ARG,2019.0,Argentina,ARG,7.38,2.0,8.73,5.5,Santa Elena,-30.94768,-59.78696,AR,18410
1000,AR,ARG,2019.0,Argentina,ARG,7.38,2.0,8.73,5.5,San Pedro,-26.62207,-54.10842,AR,23736
1001,AR,ARG,2019.0,Argentina,ARG,7.38,2.0,8.73,5.5,San Luis del Palmar,-27.5079,-58.55454,AR,15347
1002,AR,ARG,2019.0,Argentina,ARG,7.38,2.0,8.73,5.5,San Lorenzo,-28.13306,-58.76733,AR,47626
1003,AR,ARG,2019.0,Argentina,ARG,7.38,2.0,8.73,5.5,San Javier,-30.57781,-59.9317,AR,15606
1004,AR,ARG,2019.0,Argentina,ARG,7.38,2.0,8.73,5.5,San Isidro,-34.4721,-58.52708,AR,45190
1005,AR,ARG,2019.0,Argentina,ARG,7.38,2.0,8.73,5.5,Saladas,-28.25384,-58.62591,AR,18349
1006,AR,ARG,2019.0,Argentina,ARG,7.38,2.0,8.73,5.5,Retiro,-34.58333,-58.38333,AR,38635
1007,AR,ARG,2019.0,Argentina,ARG,7.38,2.0,8.73,5.5,Resistencia,-27.46056,-58.98389,AR,387158
1008,AR,ARG,2019.0,Argentina,ARG,7.38,2.0,8.73,5.5,Reconquista,-29.15,-59.65,AR,90184
1009,AR,ARG,2019.0,Argentina,ARG,7.38,2.0,8.73,5.5,Quilmes,-34.72904,-58.26374,AR,518788
1010,AR,ARG,2019.0,Argentina,ARG,7.38,2.0,8.73,5.5,Puerto Rico,-26.79598,-55.02402,AR,17491
1011,AR,ARG,2019.0,Argentina,ARG,7.38,2.0,8.73,5.5,Puerto Iguazu,-25.59912,-54.57355,AR,32038
1012,AR,ARG,2019.0,Argentina,ARG,7.38,2.0,8.73,5.5,Puerto Esperanza,-26.01517,-54.67306,AR,15579
1013,AR,ARG,2019.0,Argentina,ARG,7.38,2.0,8.73,5.5,Puerto Eldorado,-26.40843,-54.69463,AR,54189
1014,AR,ARG,2019.0,Argentina,ARG,7.38,2.0,8.73,5.5,Posadas,-27.36708,-55.89608,AR,323739
1015,AR,ARG,2019.0,Argentina,ARG,7.38,2.0,8.73,5.5,Pontevedra,-34.74785,-58.70072,AR,33515
1016,AR,ARG,2019.0,Argentina,ARG,7.38,2.0,8.73,5.5,Pirane,-25.73239,-59.10879,AR,19124
1017,AR,ARG,2019.0,Argentina,ARG,7.38,2.0,8.73,5.5,Paso de los Libres,-29.71251,-57.08771,AR,43805
1018,AR,ARG,2019.0,Argentina,ARG,7.38,2.0,8.73,5.5,Obera,-27.48706,-55.11994,AR,56528
1019,AR,ARG,2019.0,Argentina,ARG,7.38,2.0,8.73,5.5,Necochea,-38.5545,-58.73961,AR,80478
1020,AR,ARG,2019.0,Argentina,ARG,7.38,2.0,8.73,5.5,Moron,-34.6509,-58.61956,AR,319934
1021,AR,ARG,2019.0,Argentina,ARG,7.38,2.0,8.73,5.5,Monte Caseros,-30.25359,-57.63626,AR,24671
1022,AR,ARG,2019.0,Argentina,ARG,7.38,2.0,8.73,5.5,Montecarlo,-26.5662,-54.757,AR,22229
1023,AR,ARG,2019.0,Argentina,ARG,7.38,2.0,8.73,5.5,Mercedes,-34.65145,-59.43068,AR,52949
1024,AR,ARG,2019.0,Argentina,ARG,7.38,2.0,8.73,5.5,Mercedes,-29.18416,-58.07519,AR,30649
1025,AR,ARG,2019.0,Argentina,ARG,7.38,2.0,8.73,5.5,Mar del Plata,-38.00228,-57.55754,AR,553935
1026,AR,ARG,2019.0,Argentina,ARG,7.38,2.0,8.73,5.5,Lujan,-34.57028,-59.105,AR,81749
1027,AR,ARG,2019.0,Argentina,ARG,7.38,2.0,8.73,5.5,La Plata,-34.92145,-57.95453,AR,694167
1028,AR,ARG,2019.0,Argentina,ARG,7.38,2.0,8.73,5.5,La Paz,-30.74485,-59.64566,AR,24716
1029,AR,ARG,2019.0,Argentina,ARG,7.38,2.0,8.73,5.5,Jardin America,-27.04346,-55.22698,AR,24905
1030,AR,ARG,2019.0,Argentina,ARG,7.38,2.0,8.73,5.5,Gualeguaychu,-33.00937,-58.51722,AR,78676
1031,AR,ARG,2019.0,Argentina,ARG,7.38,2.0,8.73,5.5,Gualeguay,-33.14156,-59.30966,AR,33120
1032,AR,ARG,2019.0,Argentina,ARG,7.38,2.0,8.73,5.5,Goya,-29.14395,-59.2651,AR,70245
1033,AR,ARG,2019.0,Argentina,ARG,7.38,2.0,8.73,5.5,Gobernador Ingeniero Valentin Virasoro,-28.05,-56.03333,AR,28756
1034,AR,ARG,2019.0,Argentina,ARG,7.38,2.0,8.73,5.5,General Jose de San Martin,-26.53743,-59.34158,AR,31758
1035,AR,ARG,2019.0,Argentina,ARG,7.38,2.0,8.73,5.5,Garupa,-27.48171,-55.82921,AR,28814
1036,AR,ARG,2019.0,Argentina,ARG,7.38,2.0,8.73,5.5,Formosa,-26.17753,-58.17814,AR,221383
1037,AR,ARG,2019.0,Argentina,ARG,7.38,2.0,8.73,5.5,Fontana,-27.41813,-59.02392,AR,26745
1038,AR,ARG,2019.0,Argentina,ARG,7.38,2.0,8.73,5.5,Federal,-30.95465,-58.78326,AR,16333
1039,AR,ARG,2019.0,Argentina,ARG,7.38,2.0,8.73,5.5,Esquina,-30.01444,-59.52719,AR,26399
1040,AR,ARG,2019.0,Argentina,ARG,7.38,2.0,8.73,5.5,El Soberbio,-27.29847,-54.19877,AR,19571
1041,AR,ARG,2019.0,Argentina,ARG,7.38,2.0,8.73,5.5,Dolores,-36.31321,-57.67918,AR,25190
1042,AR,ARG,2019.0,Argentina,ARG,7.38,2.0,8.73,5.5,Curuzu Cuatia,-29.79171,-58.0546,AR,36390
1043,AR,ARG,2019.0,Argentina,ARG,7.38,2.0,8.73,5.5,Corrientes,-27.4806,-58.8341,AR,339067
1044,AR,ARG,2019.0,Argentina,ARG,7.38,2.0,8.73,5.5,Concordia,-31.39296,-58.02089,AR,145210
1045,AR,ARG,2019.0,Argentina,ARG,7.38,2.0,8.73,5.5,Concepcion del Uruguay,-32.48249,-58.23722,AR,67895
1046,AR,ARG,2019.0,Argentina,ARG,7.38,2.0,8.73,5.5,Colegiales,-34.57365,-58.44924,AR,57000
1047,AR,ARG,2019.0,Argentina,ARG,7.38,2.0,8.73,5.5,Chajari,-30.75048,-57.97962,AR,30655
1048,AR,ARG,2019.0,Argentina,ARG,7.38,2.0,8.73,5.5,Campana,-34.16874,-58.95914,AR,81612
1049,AR,ARG,2019.0,Argentina,ARG,7.38,2.0,8.73,5.5,Buenos Aires,-34.61315,-58.37723,AR,13076300
1050,AR,ARG,2019.0,Argentina,ARG,7.38,2.0,8.73,5.5,Barranqueras,-27.48132,-58.93925,AR,50823
1051,AR,ARG,2019.0,Argentina,ARG,7.38,2.0,8.73,5.5,Azul,-36.77698,-59.85854,AR,53941
1052,AR,ARG,2019.0,Argentina,ARG,7.38,2.0,8.73,5.5,Avellaneda,-29.11761,-59.65834,AR,23077
1053,AR,ARG,2019.0,Argentina,ARG,7.38,2.0,8.73,5.5,Aristobulo del Valle,-27.09625,-54.89626,AR,20683
1054,AR,ARG,2019.0,Argentina,ARG,7.38,2.0,8.73,5.5,Zapala,-38.89916,-70.05442,AR,31534
1055,AR,ARG,2019.0,Argentina,ARG,7.38,2.0,8.73,5.5,Yerba Buena,-26.81667,-65.31667,AR,50783
1056,AR,ARG,2019.0,Argentina,ARG,7.38,2.0,8.73,5.5,Villa Regina,-39.1,-67.06667,AR,31209
1057,AR,ARG,2019.0,Argentina,ARG,7.38,2.0,8.73,5.5,Villa Paula de Sarmiento,-31.4933,-68.53838,AR,19092
1058,AR,ARG,2019.0,Argentina,ARG,7.38,2.0,8.73,5.5,Villa Nueva,-32.43293,-63.24763,AR,16841
1059,AR,ARG,2019.0,Argentina,ARG,7.38,2.0,8.73,5.5,Villa Maria,-32.40751,-63.24016,AR,92453
1060,AR,ARG,2019.0,Argentina,ARG,7.38,2.0,8.73,5.5,Villa Dolores,-31.94585,-65.18958,AR,28009
1061,AR,ARG,2019.0,Argentina,ARG,7.38,2.0,8.73,5.5,Villa Constitucion,-33.22778,-60.3297,AR,44271
1062,AR,ARG,2019.0,Argentina,ARG,7.38,2.0,8.73,5.5,Villa Carlos Paz,-31.42414,-64.49778,AR,69451
1063,AR,ARG,2019.0,Argentina,ARG,7.38,2.0,8.73,5.5,Villa Angela,-27.57383,-60.71526,AR,43511
1064,AR,ARG,2019.0,Argentina,ARG,7.38,2.0,8.73,5.5,Villa Allende,-31.29458,-64.29538,AR,21683
1065,AR,ARG,2019.0,Argentina,ARG,7.38,2.0,8.73,5.5,Viedma,-40.81345,-62.99668,AR,48940
1066,AR,ARG,2019.0,Argentina,ARG,7.38,2.0,8.73,5.5,Victoria,-32.61841,-60.15478,AR,25139
1067,AR,ARG,2019.0,Argentina,ARG,7.38,2.0,8.73,5.5,Vera,-29.4593,-60.21261,AR,19797
1068,AR,ARG,2019.0,Argentina,ARG,7.38,2.0,8.73,5.5,Venado Tuerto,-33.74556,-61.96885,AR,72340
1069,AR,ARG,2019.0,Argentina,ARG,7.38,2.0,8.73,5.5,Veinticinco de Mayo,-35.4323,-60.17271,AR,24668
1070,AR,ARG,2019.0,Argentina,ARG,7.38,2.0,8.73,5.5,Ushuaia,-54.8,-68.3,AR,58028
1071,AR,ARG,2019.0,Argentina,ARG,7.38,2.0,8.73,5.5,Unquillo,-31.23073,-64.31615,AR,15369
1072,AR,ARG,2019.0,Argentina,ARG,7.38,2.0,8.73,5.5,Tres Isletas,-26.34067,-60.43207,AR,24747
1073,AR,ARG,2019.0,Argentina,ARG,7.38,2.0,8.73,5.5,Tres Arroyos,-38.37394,-60.27978,AR,47136
1074,AR,ARG,2019.0,Argentina,ARG,7.38,2.0,8.73,5.5,Trelew,-43.24895,-65.30505,AR,93442
1075,AR,ARG,2019.0,Argentina,ARG,7.38,2.0,8.73,5.5,Termas de Rio Hondo,-27.49362,-64.85972,AR,27838
1076,AR,ARG,2019.0,Argentina,ARG,7.38,2.0,8.73,5.5,Tartagal,-22.51637,-63.80131,AR,60819
1077,AR,ARG,2019.0,Argentina,ARG,7.38,2.0,8.73,5.5,Tafi Viejo,-26.73201,-65.25921,AR,48459
1078,AR,ARG,2019.0,Argentina,ARG,7.38,2.0,8.73,5.5,Sunchales,-30.94404,-61.56148,AR,18757
1079,AR,ARG,2019.0,Argentina,ARG,7.38,2.0,8.73,5.5,Santo Tome,-31.66274,-60.7653,AR,59072
1080,AR,ARG,2019.0,Argentina,ARG,7.38,2.0,8.73,5.5,Santiago del Estero,-27.79511,-64.26149,AR,354692
1081,AR,ARG,2019.0,Argentina,ARG,7.38,2.0,8.73,5.5,Santa Rosa,-36.61667,-64.28333,AR,111424
1082,AR,ARG,2019.0,Argentina,ARG,7.38,2.0,8.73,5.5,Santa Lucia,-31.53987,-68.49503,AR,43565
1083,AR,ARG,2019.0,Argentina,ARG,7.38,2.0,8.73,5.5,Santa Fe de la Vera Cruz,-31.63333,-60.7,AR,489505
1084,AR,ARG,2019.0,Argentina,ARG,7.38,2.0,8.73,5.5,San Salvador de Jujuy,-24.19457,-65.29712,AR,305891
1085,AR,ARG,2019.0,Argentina,ARG,7.38,2.0,8.73,5.5,San Ramon de la Nueva Oran,-23.13705,-64.32426,AR,74059
1086,AR,ARG,2019.0,Argentina,ARG,7.38,2.0,8.73,5.5,San Rafael,-34.61772,-68.33007,AR,109163
1087,AR,ARG,2019.0,Argentina,ARG,7.38,2.0,8.73,5.5,San Pedro,-24.23127,-64.86614,AR,58430
1088,AR,ARG,2019.0,Argentina,ARG,7.38,2.0,8.73,5.5,San Nicolas de los Arroyos,-33.33578,-60.22523,AR,127742
1089,AR,ARG,2019.0,Argentina,ARG,7.38,2.0,8.73,5.5,San Miguel de Tucuman,-26.82414,-65.2226,AR,781023
1090,AR,ARG,2019.0,Argentina,ARG,7.38,2.0,8.73,5.5,San Martin de los Andes,-40.15789,-71.35337,AR,23519
1091,AR,ARG,2019.0,Argentina,ARG,7.38,2.0,8.73,5.5,San Martin,-33.08103,-68.46814,AR,82549
1092,AR,ARG,2019.0,Argentina,ARG,7.38,2.0,8.73,5.5,San Luis,-33.29501,-66.33563,AR,183982
1093,AR,ARG,2019.0,Argentina,ARG,7.38,2.0,8.73,5.5,San Justo,-30.78913,-60.59189,AR,21809
1094,AR,ARG,2019.0,Argentina,ARG,7.38,2.0,8.73,5.5,San Juan,-31.5375,-68.53639,AR,447048
1095,AR,ARG,2019.0,Argentina,ARG,7.38,2.0,8.73,5.5,San Jose de Jachal,-30.24057,-68.74693,AR,21018
1096,AR,ARG,2019.0,Argentina,ARG,7.38,2.0,8.73,5.5,San Jorge,-31.89618,-61.85984,AR,16873
1097,AR,ARG,2019.0,Argentina,ARG,7.38,2.0,8.73,5.5,San Francisco,-31.42797,-62.08266,AR,59062
1098,AR,ARG,2019.0,Argentina,ARG,7.38,2.0,8.73,5.5,San Fernando del Valle de Catamarca,-28.46957,-65.78524,AR,188812
1099,AR,ARG,2019.0,Argentina,ARG,7.38,2.0,8.73,5.5,San Antonio Oeste,-40.73193,-64.94769,AR,16966
1100,AR,ARG,2019.0,Argentina,ARG,7.38,2.0,8.73,5.5,Salta,-24.7859,-65.41166,AR,512686
1101,AR,ARG,2019.0,Argentina,ARG,7.38,2.0,8.73,5.5,Rufino,-34.26827,-62.71262,AR,18361
1102,AR,ARG,2019.0,Argentina,ARG,7.38,2.0,8.73,5.5,Rosario,-32.94682,-60.63932,AR,1173533
1103,AR,ARG,2019.0,Argentina,ARG,7.38,2.0,8.73,5.5,Rio Tercero,-32.17301,-64.11405,AR,53389
1104,AR,ARG,2019.0,Argentina,ARG,7.38,2.0,8.73,5.5,Rio Segundo,-31.6526,-63.9099,AR,18155
1105,AR,ARG,2019.0,Argentina,ARG,7.38,2.0,8.73,5.5,Rio Gallegos,-51.62261,-69.21813,AR,85700
1106,AR,ARG,2019.0,Argentina,ARG,7.38,2.0,8.73,5.5,Rio Cuarto,-33.13067,-64.34992,AR,153757
1107,AR,ARG,2019.0,Argentina,ARG,7.38,2.0,8.73,5.5,Rio Ceballos,-31.16486,-64.32241,AR,16632
1108,AR,ARG,2019.0,Argentina,ARG,7.38,2.0,8.73,5.5,Rawson,-43.30016,-65.10228,AR,26335
1109,AR,ARG,2019.0,Argentina,ARG,7.38,2.0,8.73,5.5,Rafaela,-31.25033,-61.4867,AR,88713
1110,AR,ARG,2019.0,Argentina,ARG,7.38,2.0,8.73,5.5,Quitilipi,-26.86913,-60.21683,AR,32083
1111,AR,ARG,2019.0,Argentina,ARG,7.38,2.0,8.73,5.5,Punta Alta,-38.87588,-62.07359,AR,57209
1112,AR,ARG,2019.0,Argentina,ARG,7.38,2.0,8.73,5.5,Puerto Madryn,-42.7692,-65.03851,AR,64555
1113,AR,ARG,2019.0,Argentina,ARG,7.38,2.0,8.73,5.5,Presidencia Roque Saenz Pena,-26.78522,-60.43876,AR,81879
1114,AR,ARG,2019.0,Argentina,ARG,7.38,2.0,8.73,5.5,Pocito,-31.68333,-68.58333,AR,40969
1115,AR,ARG,2019.0,Argentina,ARG,7.38,2.0,8.73,5.5,Plottier,-38.96667,-68.23333,AR,25186
1116,AR,ARG,2019.0,Argentina,ARG,7.38,2.0,8.73,5.5,Pergamino,-33.88995,-60.57357,AR,87652
1117,AR,ARG,2019.0,Argentina,ARG,7.38,2.0,8.73,5.5,Perez,-32.99835,-60.76791,AR,24436
1118,AR,ARG,2019.0,Argentina,ARG,7.38,2.0,8.73,5.5,Parana,-31.73197,-60.5238,AR,262295
1119,AR,ARG,2019.0,Argentina,ARG,7.38,2.0,8.73,5.5,Palpala,-24.25647,-65.21163,AR,48199
1120,AR,ARG,2019.0,Argentina,ARG,7.38,2.0,8.73,5.5,Olavarria,-36.89272,-60.32254,AR,86320
1121,AR,ARG,2019.0,Argentina,ARG,7.38,2.0,8.73,5.5,Nueve de Julio,-35.44437,-60.88313,AR,34718
1122,AR,ARG,2019.0,Argentina,ARG,7.38,2.0,8.73,5.5,Neuquen,-38.95161,-68.0591,AR,242092
1123,AR,ARG,2019.0,Argentina,ARG,7.38,2.0,8.73,5.5,Morteros,-30.71164,-61.99862,AR,15129
1124,AR,ARG,2019.0,Argentina,ARG,7.38,2.0,8.73,5.5,Monteros,-27.16741,-65.49832,AR,23771
1125,AR,ARG,2019.0,Argentina,ARG,7.38,2.0,8.73,5.5,Mendoza,-32.89084,-68.82717,AR,876884
1126,AR,ARG,2019.0,Argentina,ARG,7.38,2.0,8.73,5.5,Marcos Juarez,-32.6978,-62.10672,AR,24226
1127,AR,ARG,2019.0,Argentina,ARG,7.38,2.0,8.73,5.5,Machagai,-26.92614,-60.04955,AR,28070
1128,AR,ARG,2019.0,Argentina,ARG,7.38,2.0,8.73,5.5,Lincoln,-34.86649,-61.5302,AR,41808
1129,AR,ARG,2019.0,Argentina,ARG,7.38,2.0,8.73,5.5,Libertador General San Martin,-23.80644,-64.78757,AR,49267
1130,AR,ARG,2019.0,Argentina,ARG,7.38,2.0,8.73,5.5,Las Brenas,-27.08966,-61.08161,AR,26955
1131,AR,ARG,2019.0,Argentina,ARG,7.38,2.0,8.73,5.5,La Rioja,-29.41105,-66.85067,AR,162620
1132,AR,ARG,2019.0,Argentina,ARG,7.38,2.0,8.73,5.5,La Falda,-31.08841,-64.48987,AR,15112
1133,AR,ARG,2019.0,Argentina,ARG,7.38,2.0,8.73,5.5,La Calera,-31.34377,-64.33529,AR,24796
1134,AR,ARG,2019.0,Argentina,ARG,7.38,2.0,8.73,5.5,Laboulaye,-34.12662,-63.39119,AR,19908
1135,AR,ARG,2019.0,Argentina,ARG,7.38,2.0,8.73,5.5,Junin,-34.58382,-60.94332,AR,85007
1136,AR,ARG,2019.0,Argentina,ARG,7.38,2.0,8.73,5.5,Joaquin V. Gonzalez,-25.08333,-64.18333,AR,19185
1137,AR,ARG,2019.0,Argentina,ARG,7.38,2.0,8.73,5.5,Jesus Maria,-30.98153,-64.09424,AR,26825
1138,AR,ARG,2019.0,Argentina,ARG,7.38,2.0,8.73,5.5,Granadero Baigorria,-32.85683,-60.71754,AR,32427
1139,AR,ARG,2019.0,Argentina,ARG,7.38,2.0,8.73,5.5,Gobernador Galvez,-33.03016,-60.64045,AR,74650
1140,AR,ARG,2019.0,Argentina,ARG,7.38,2.0,8.73,5.5,General Villegas,-35.03285,-63.01252,AR,16270
1141,AR,ARG,2019.0,Argentina,ARG,7.38,2.0,8.73,5.5,General Roca,-39.03333,-67.58333,AR,73212
1142,AR,ARG,2019.0,Argentina,ARG,7.38,2.0,8.73,5.5,General Pinedo,-27.31667,-61.28333,AR,15741
1143,AR,ARG,2019.0,Argentina,ARG,7.38,2.0,8.73,5.5,General Pico,-35.65662,-63.75682,AR,57029
1144,AR,ARG,2019.0,Argentina,ARG,7.38,2.0,8.73,5.5,General Enrique Mosconi,-22.59588,-63.81255,AR,19811
1145,AR,ARG,2019.0,Argentina,ARG,7.38,2.0,8.73,5.5,Galvez,-32.02927,-61.22103,AR,18374
1146,AR,ARG,2019.0,Argentina,ARG,7.38,2.0,8.73,5.5,Firmat,-33.45937,-61.4832,AR,18294
1147,AR,ARG,2019.0,Argentina,ARG,7.38,2.0,8.73,5.5,Famailla,-27.05413,-65.40329,AR,30951
1148,AR,ARG,2019.0,Argentina,ARG,7.38,2.0,8.73,5.5,Esquel,-42.91147,-71.31947,AR,28486
1149,AR,ARG,2019.0,Argentina,ARG,7.38,2.0,8.73,5.5,Esperanza,-31.4488,-60.93173,AR,35885
1150,AR,ARG,2019.0,Argentina,ARG,7.38,2.0,8.73,5.5,Embarcacion,-23.21003,-64.09965,AR,23961
1151,AR,ARG,2019.0,Argentina,ARG,7.38,2.0,8.73,5.5,Embalse,-32.18,-64.41809,AR,15900
1152,AR,ARG,2019.0,Argentina,ARG,7.38,2.0,8.73,5.5,El Bolson,-41.96051,-71.53336,AR,15537
1153,AR,ARG,2019.0,Argentina,ARG,7.38,2.0,8.73,5.5,Diamante,-32.06641,-60.63837,AR,19545
1154,AR,ARG,2019.0,Argentina,ARG,7.38,2.0,8.73,5.5,Dean Funes,-30.42036,-64.34984,AR,20164
1155,AR,ARG,2019.0,Argentina,ARG,7.38,2.0,8.73,5.5,Cutral-Co,-38.93424,-69.23052,AR,47380
1156,AR,ARG,2019.0,Argentina,ARG,7.38,2.0,8.73,5.5,Cruz del Eje,-30.72644,-64.80387,AR,28166
1157,AR,ARG,2019.0,Argentina,ARG,7.38,2.0,8.73,5.5,Crespo,-32.02873,-60.30658,AR,18296
1158,AR,ARG,2019.0,Argentina,ARG,7.38,2.0,8.73,5.5,Cosquin,-31.24508,-64.46563,AR,19070
1159,AR,ARG,2019.0,Argentina,ARG,7.38,2.0,8.73,5.5,Coronel Suarez,-37.45467,-61.93343,AR,27000
1160,AR,ARG,2019.0,Argentina,ARG,7.38,2.0,8.73,5.5,Coronda,-31.97263,-60.91983,AR,16975
1161,AR,ARG,2019.0,Argentina,ARG,7.38,2.0,8.73,5.5,Cordoba,-31.4135,-64.18105,AR,1428214
1162,AR,ARG,2019.0,Argentina,ARG,7.38,2.0,8.73,5.5,Comodoro Rivadavia,-45.86413,-67.49656,AR,140850
1163,AR,ARG,2019.0,Argentina,ARG,7.38,2.0,8.73,5.5,Cipolletti,-38.93392,-67.99032,AR,75078
1164,AR,ARG,2019.0,Argentina,ARG,7.38,2.0,8.73,5.5,Cinco Saltos,-38.82225,-68.06293,AR,19819
1165,AR,ARG,2019.0,Argentina,ARG,7.38,2.0,8.73,5.5,Chivilcoy,-34.89566,-60.01667,AR,54514
1166,AR,ARG,2019.0,Argentina,ARG,7.38,2.0,8.73,5.5,Chimbas,-31.48333,-68.53333,AR,73829
1167,AR,ARG,2019.0,Argentina,ARG,7.38,2.0,8.73,5.5,Chilecito,-29.16195,-67.4974,AR,42248
1168,AR,ARG,2019.0,Argentina,ARG,7.38,2.0,8.73,5.5,Charata,-27.21438,-61.18795,AR,27813
1169,AR,ARG,2019.0,Argentina,ARG,7.38,2.0,8.73,5.5,Chacabuco,-34.64167,-60.47389,AR,34587
1170,AR,ARG,2019.0,Argentina,ARG,7.38,2.0,8.73,5.5,Centenario,-38.82955,-68.1318,AR,28956
1171,AR,ARG,2019.0,Argentina,ARG,7.38,2.0,8.73,5.5,Caucete,-31.65179,-68.28105,AR,33609
1172,AR,ARG,2019.0,Argentina,ARG,7.38,2.0,8.73,5.5,Catriel,-37.87907,-67.7956,AR,15169
1173,AR,ARG,2019.0,Argentina,ARG,7.38,2.0,8.73,5.5,Castelli,-25.94679,-60.61947,AR,36588
1174,AR,ARG,2019.0,Argentina,ARG,7.38,2.0,8.73,5.5,Casilda,-33.04417,-61.16806,AR,32002
1175,AR,ARG,2019.0,Argentina,ARG,7.38,2.0,8.73,5.5,Carcarana,-32.85679,-61.15331,AR,15619
1176,AR,ARG,2019.0,Argentina,ARG,7.38,2.0,8.73,5.5,Capitan Bermudez,-32.82262,-60.71852,AR,27060
1177,AR,ARG,2019.0,Argentina,ARG,7.38,2.0,8.73,5.5,Canada de Gomez,-32.81636,-61.39493,AR,36000
1178,AR,ARG,2019.0,Argentina,ARG,7.38,2.0,8.73,5.5,Caleta Olivia,-46.43929,-67.52814,AR,36077
1179,AR,ARG,2019.0,Argentina,ARG,7.38,2.0,8.73,5.5,Bell Ville,-32.62591,-62.68873,AR,35105
1180,AR,ARG,2019.0,Argentina,ARG,7.38,2.0,8.73,5.5,Bella Vista,-27.03424,-65.30196,AR,15126
1181,AR,ARG,2019.0,Argentina,ARG,7.38,2.0,8.73,5.5,Bahia Blanca,-38.71959,-62.27243,AR,276546
1182,AR,ARG,2019.0,Argentina,ARG,7.38,2.0,8.73,5.5,Arroyo Seco,-33.15489,-60.50863,AR,20008
1183,AR,ARG,2019.0,Argentina,ARG,7.38,2.0,8.73,5.5,Arroyito,-31.42022,-63.05002,AR,19577
1184,AR,ARG,2019.0,Argentina,ARG,7.38,2.0,8.73,5.5,Anatuya,-28.46064,-62.83472,AR,20261
1185,AR,ARG,2019.0,Argentina,ARG,7.38,2.0,8.73,5.5,Alta Gracia,-31.65292,-64.42826,AR,40384
1186,AR,ARG,2019.0,Argentina,ARG,7.38,2.0,8.73,5.5,Allen,-38.97736,-67.82714,AR,26083
1187,AR,ARG,2019.0,Argentina,ARG,7.38,2.0,8.73,5.5,Alderetes,-26.81667,-65.13333,AR,38466
1188,AR,ARG,2019.0,Argentina,ARG,7.38,2.0,8.73,5.5,Albardon,-31.43722,-68.52556,AR,20413
1189,AR,ARG,2019.0,Argentina,ARG,7.38,2.0,8.73,5.5,Aguilares,-27.4338,-65.61427,AR,32494
1190,AR,ARG,2019.0,Argentina,ARG,7.38,2.0,8.73,5.5,Villa Santa Rita,-34.61082,-58.481,AR,34000
1191,AR,ARG,2019.0,Argentina,ARG,7.38,2.0,8.73,5.5,Villa Mercedes,-33.67571,-65.45783,AR,96781
1192,AR,ARG,2019.0,Argentina,ARG,7.38,2.0,8.73,5.5,San Carlos de Bariloche,-41.14557,-71.30822,AR,95394
1193,AR,ARG,2019.0,Argentina,ARG,7.38,2.0,8.73,5.5,Adrogue,-34.80041,-58.38384,AR,28265
3450,AT,AUT,2019.0,Austria,AUT,8.67,1.0,9.25,7.86,Wolfsberg,46.84056,14.84417,AT,25610
3451,AT,AUT,2019.0,Austria,AUT,8.67,1.0,9.25,7.86,Wiener Neustadt,47.80485,16.23196,AT,38481
3452,AT,AUT,2019.0,Austria,AUT,8.67,1.0,9.25,7.86,Vienna,48.20849,16.37208,AT,1691468
3453,AT,AUT,2019.0,Austria,AUT,8.67,1.0,9.25,7.86,Wels,48.16667,14.03333,AT,57946
3454,AT,AUT,2019.0,Austria,AUT,8.67,1.0,9.25,7.86,Weinzierl bei Krems,48.4,15.6,AT,24092
3455,AT,AUT,2019.0,Austria,AUT,8.67,1.0,9.25,7.86,Villach,46.61028,13.85583,AT,58882
3456,AT,AUT,2019.0,Austria,AUT,8.67,1.0,9.25,7.86,Traun,48.22656,14.23459,AT,23959
3457,AT,AUT,2019.0,Austria,AUT,8.67,1.0,9.25,7.86,Traiskirchen,48.01485,16.29324,AT,16212
3458,AT,AUT,2019.0,Austria,AUT,8.67,1.0,9.25,7.86,Ternitz,47.71565,16.03575,AT,15153
3459,AT,AUT,2019.0,Austria,AUT,8.67,1.0,9.25,7.86,Steyr,48.04274,14.42127,AT,39566
3460,AT,AUT,2019.0,Austria,AUT,8.67,1.0,9.25,7.86,Spittal an der Drau,46.8,13.5,AT,16363
3461,AT,AUT,2019.0,Austria,AUT,8.67,1.0,9.25,7.86,Schwechat,48.13333,16.46667,AT,15711
3462,AT,AUT,2019.0,Austria,AUT,8.67,1.0,9.25,7.86,Sankt Poelten,48.2,15.63333,AT,49001
3463,AT,AUT,2019.0,Austria,AUT,8.67,1.0,9.25,7.86,Salzburg,47.79941,13.04399,AT,150269
3464,AT,AUT,2019.0,Austria,AUT,8.67,1.0,9.25,7.86,Saalfelden am Steinernen Meer,47.42681,12.848,AT,16119
3465,AT,AUT,2019.0,Austria,AUT,8.67,1.0,9.25,7.86,Modling,48.08605,16.28921,AT,20710
3466,AT,AUT,2019.0,Austria,AUT,8.67,1.0,9.25,7.86,Lustenau,47.42642,9.65851,AT,20218
3467,AT,AUT,2019.0,Austria,AUT,8.67,1.0,9.25,7.86,Linz,48.30639,14.28611,AT,181162
3468,AT,AUT,2019.0,Austria,AUT,8.67,1.0,9.25,7.86,Leonding,48.27965,14.2533,AT,22736
3469,AT,AUT,2019.0,Austria,AUT,8.67,1.0,9.25,7.86,Leoben,47.3765,15.09144,AT,24809
3470,AT,AUT,2019.0,Austria,AUT,8.67,1.0,9.25,7.86,Kufstein,47.58333,12.16667,AT,16115
3471,AT,AUT,2019.0,Austria,AUT,8.67,1.0,9.25,7.86,Krems an der Donau,48.40921,15.61415,AT,23932
3472,AT,AUT,2019.0,Austria,AUT,8.67,1.0,9.25,7.86,Klosterneuburg,48.30521,16.32522,AT,24843
3473,AT,AUT,2019.0,Austria,AUT,8.67,1.0,9.25,7.86,Klagenfurt am Woerthersee,46.62472,14.30528,AT,90610
3474,AT,AUT,2019.0,Austria,AUT,8.67,1.0,9.25,7.86,Kapfenberg,47.44458,15.29331,AT,21819
3475,AT,AUT,2019.0,Austria,AUT,8.67,1.0,9.25,7.86,Innsbruck,47.26266,11.39454,AT,112467
3476,AT,AUT,2019.0,Austria,AUT,8.67,1.0,9.25,7.86,Hallein,47.68333,13.1,AT,18980
3477,AT,AUT,2019.0,Austria,AUT,8.67,1.0,9.25,7.86,Graz,47.06667,15.45,AT,222326
3478,AT,AUT,2019.0,Austria,AUT,8.67,1.0,9.25,7.86,Feldkirch,47.23306,9.6,AT,31082
3479,AT,AUT,2019.0,Austria,AUT,8.67,1.0,9.25,7.86,Dornbirn,47.41427,9.74195,AT,43013
3480,AT,AUT,2019.0,Austria,AUT,8.67,1.0,9.25,7.86,Bregenz,47.50311,9.7471,AT,27611
3481,AT,AUT,2019.0,Austria,AUT,8.67,1.0,9.25,7.86,Braunau am Inn,48.25628,13.04343,AT,16403
3482,AT,AUT,2019.0,Austria,AUT,8.67,1.0,9.25,7.86,Baden,48.00543,16.23264,AT,24893
3483,AT,AUT,2019.0,Austria,AUT,8.67,1.0,9.25,7.86,Amstetten,48.1229,14.87206,AT,22832
3484,AT,AUT,2019.0,Austria,AUT,8.67,1.0,9.25,7.86,Ansfelden,47.965,13.04944,AT,15673
3870,AU,AUS,2019.0,Australia,AUS,8.84,1.0,9.3,8.2,Whyalla,-33.03268,137.56483,AU,19645
3871,AU,AUS,2019.0,Australia,AUS,8.84,1.0,9.3,8.2,Rockingham,-32.27682,115.72978,AU,108022
3872,AU,AUS,2019.0,Australia,AUS,8.84,1.0,9.3,8.2,Prospect,-34.88241,138.5933,AU,20217
3873,AU,AUS,2019.0,Australia,AUS,8.84,1.0,9.3,8.2,Port Hedland,-20.31215,118.61059,AU,15044
3874,AU,AUS,2019.0,Australia,AUS,8.84,1.0,9.3,8.2,Perth,-31.95224,115.8614,AU,1896548
3875,AU,AUS,2019.0,Australia,AUS,8.84,1.0,9.3,8.2,Murray Bridge,-35.11986,139.27345,AU,19577
3876,AU,AUS,2019.0,Australia,AUS,8.84,1.0,9.3,8.2,Mount Isa,-20.72523,139.49727,AU,22785
3877,AU,AUS,2019.0,Australia,AUS,8.84,1.0,9.3,8.2,Morphett Vale,-35.13333,138.51667,AU,22602
3878,AU,AUS,2019.0,Australia,AUS,8.84,1.0,9.3,8.2,Mandurah,-32.5269,115.7217,AU,83294
3879,AU,AUS,2019.0,Australia,AUS,8.84,1.0,9.3,8.2,Kwinana,-32.23013,115.78128,AU,30433
3880,AU,AUS,2019.0,Australia,AUS,8.84,1.0,9.3,8.2,Kalgoorlie,-30.74614,121.4742,AU,31107
3881,AU,AUS,2019.0,Australia,AUS,8.84,1.0,9.3,8.2,Gosnells,-32.081,116.0054,AU,17277
3882,AU,AUS,2019.0,Australia,AUS,8.84,1.0,9.3,8.2,Geraldton,-28.77897,114.61459,AU,26872
3883,AU,AUS,2019.0,Australia,AUS,8.84,1.0,9.3,8.2,Gawler,-34.60251,138.74902,AU,20006
3884,AU,AUS,2019.0,Australia,AUS,8.84,1.0,9.3,8.2,Fremantle,-32.05632,115.74557,AU,24835
3885,AU,AUS,2019.0,Australia,AUS,8.84,1.0,9.3,8.2,Darwin,-12.46113,130.84185,AU,129062
3886,AU,AUS,2019.0,Australia,AUS,8.84,1.0,9.3,8.2,Busselton,-33.65249,115.3455,AU,21898
3887,AU,AUS,2019.0,Australia,AUS,8.84,1.0,9.3,8.2,Bunbury,-33.32711,115.64137,AU,68248
3888,AU,AUS,2019.0,Australia,AUS,8.84,1.0,9.3,8.2,Armadale,-32.14607,116.0093,AU,62296
3889,AU,AUS,2019.0,Australia,AUS,8.84,1.0,9.3,8.2,Alice Springs,-23.69748,133.88362,AU,25186
3890,AU,AUS,2019.0,Australia,AUS,8.84,1.0,9.3,8.2,Albany,-35.02692,117.88369,AU,33650
3891,AU,AUS,2019.0,Australia,AUS,8.84,1.0,9.3,8.2,Adelaide,-34.92866,138.59863,AU,1225235
3892,AU,AUS,2019.0,Australia,AUS,8.84,1.0,9.3,8.2,Woodridge,-27.63333,153.1,AU,20650
3893,AU,AUS,2019.0,Australia,AUS,8.84,1.0,9.3,8.2,Wodonga,-36.12179,146.88809,AU,31605
3894,AU,AUS,2019.0,Australia,AUS,8.84,1.0,9.3,8.2,Werribee,-37.9,144.66667,AU,37737
3895,AU,AUS,2019.0,Australia,AUS,8.84,1.0,9.3,8.2,Warrnambool,-38.38176,142.48799,AU,33982
3896,AU,AUS,2019.0,Australia,AUS,8.84,1.0,9.3,8.2,Wantirna South,-37.88333,145.21667,AU,17477
3897,AU,AUS,2019.0,Australia,AUS,8.84,1.0,9.3,8.2,Wangaratta,-36.35846,146.32056,AU,16845
3898,AU,AUS,2019.0,Australia,AUS,8.84,1.0,9.3,8.2,Wagga Wagga,-35.12577,147.35375,AU,46913
3899,AU,AUS,2019.0,Australia,AUS,8.84,1.0,9.3,8.2,Traralgon,-38.19528,146.5415,AU,21960
3900,AU,AUS,2019.0,Australia,AUS,8.84,1.0,9.3,8.2,Townsville,-19.26639,146.80569,AU,196219
3901,AU,AUS,2019.0,Australia,AUS,8.84,1.0,9.3,8.2,Toowoomba,-27.56056,151.95386,AU,131258
3902,AU,AUS,2019.0,Australia,AUS,8.84,1.0,9.3,8.2,Thornbury,-37.75,145,AU,17434
3903,AU,AUS,2019.0,Australia,AUS,8.84,1.0,9.3,8.2,Thomastown,-37.68333,145.01667,AU,20331
3904,AU,AUS,2019.0,Australia,AUS,8.84,1.0,9.3,8.2,Tarneit,-37.86667,144.66667,AU,21690
3905,AU,AUS,2019.0,Australia,AUS,8.84,1.0,9.3,8.2,Taree,-31.91099,152.45387,AU,16621
3906,AU,AUS,2019.0,Australia,AUS,8.84,1.0,9.3,8.2,Tamworth,-31.09048,150.92905,AU,47597
3907,AU,AUS,2019.0,Australia,AUS,8.84,1.0,9.3,8.2,Sydney,-33.86785,151.20732,AU,4627345
3908,AU,AUS,2019.0,Australia,AUS,8.84,1.0,9.3,8.2,Surfers Paradise,-28.00274,153.42999,AU,18501
3909,AU,AUS,2019.0,Australia,AUS,8.84,1.0,9.3,8.2,Sunnybank,-27.58333,153.05,AU,16442
3910,AU,AUS,2019.0,Australia,AUS,8.84,1.0,9.3,8.2,Sunbury,-37.57742,144.72607,AU,29925
3911,AU,AUS,2019.0,Australia,AUS,8.84,1.0,9.3,8.2,Port Stephens,-32.71314,152.06623,AU,27531
3912,AU,AUS,2019.0,Australia,AUS,8.84,1.0,9.3,8.2,Springvale,-37.94853,145.15274,AU,19771
3913,AU,AUS,2019.0,Australia,AUS,8.84,1.0,9.3,8.2,Southport,-27.96724,153.39796,AU,28315
3914,AU,AUS,2019.0,Australia,AUS,8.84,1.0,9.3,8.2,South Grafton,-29.7076,152.92627,AU,16399
3915,AU,AUS,2019.0,Australia,AUS,8.84,1.0,9.3,8.2,Shepparton,-36.38047,145.39867,AU,38773
3916,AU,AUS,2019.0,Australia,AUS,8.84,1.0,9.3,8.2,Seaford,-38.1,145.13333,AU,16033
3917,AU,AUS,2019.0,Australia,AUS,8.84,1.0,9.3,8.2,Saint Kilda,-37.8676,144.98099,AU,17795
3918,AU,AUS,2019.0,Australia,AUS,8.84,1.0,9.3,8.2,Saint Albans,-37.73333,144.8,AU,35091
3919,AU,AUS,2019.0,Australia,AUS,8.84,1.0,9.3,8.2,Rowville,-37.93333,145.23333,AU,34145
3920,AU,AUS,2019.0,Australia,AUS,8.84,1.0,9.3,8.2,Rockhampton,-23.38032,150.50595,AU,61724
3921,AU,AUS,2019.0,Australia,AUS,8.84,1.0,9.3,8.2,Richmond,-37.81819,145.00176,AU,26121
3922,AU,AUS,2019.0,Australia,AUS,8.84,1.0,9.3,8.2,Reservoir,-37.71667,145,AU,47637
3923,AU,AUS,2019.0,Australia,AUS,8.84,1.0,9.3,8.2,Queanbeyan,-35.35493,149.232,AU,40661
3924,AU,AUS,2019.0,Australia,AUS,8.84,1.0,9.3,8.2,Quakers Hill,-33.73333,150.88333,AU,25017
3925,AU,AUS,2019.0,Australia,AUS,8.84,1.0,9.3,8.2,Preston,-37.75,145.01667,AU,29925
3926,AU,AUS,2019.0,Australia,AUS,8.84,1.0,9.3,8.2,Port Macquarie,-31.43084,152.90894,AU,41491
3927,AU,AUS,2019.0,Australia,AUS,8.84,1.0,9.3,8.2,Point Cook,-37.91482,144.75088,AU,32413
3928,AU,AUS,2019.0,Australia,AUS,8.84,1.0,9.3,8.2,Pakenham South,-38.13333,145.51667,AU,32911
3929,AU,AUS,2019.0,Australia,AUS,8.84,1.0,9.3,8.2,Orange,-33.28397,149.10018,AU,39329
3930,AU,AUS,2019.0,Australia,AUS,8.84,1.0,9.3,8.2,Nowra,-34.88422,150.60036,AU,34479
3931,AU,AUS,2019.0,Australia,AUS,8.84,1.0,9.3,8.2,Northcote,-37.76667,145,AU,22920
3932,AU,AUS,2019.0,Australia,AUS,8.84,1.0,9.3,8.2,Noble Park,-37.96667,145.16667,AU,28377
3933,AU,AUS,2019.0,Australia,AUS,8.84,1.0,9.3,8.2,Newcastle,-32.92715,151.77647,AU,308308
3934,AU,AUS,2019.0,Australia,AUS,8.84,1.0,9.3,8.2,Nerang,-27.98941,153.33633,AU,16256
3935,AU,AUS,2019.0,Australia,AUS,8.84,1.0,9.3,8.2,Narre Warren,-38.03333,145.3,AU,25882
3936,AU,AUS,2019.0,Australia,AUS,8.84,1.0,9.3,8.2,Narangba,-27.20338,152.95923,AU,16223
3937,AU,AUS,2019.0,Australia,AUS,8.84,1.0,9.3,8.2,Mulgrave,-37.91667,145.2,AU,17647
3938,AU,AUS,2019.0,Australia,AUS,8.84,1.0,9.3,8.2,Mount Martha,-38.26667,145.01667,AU,17087
3939,AU,AUS,2019.0,Australia,AUS,8.84,1.0,9.3,8.2,Mount Gambier,-37.8318,140.77919,AU,23209
3940,AU,AUS,2019.0,Australia,AUS,8.84,1.0,9.3,8.2,Mount Eliza,-38.18333,145.08333,AU,17248
3941,AU,AUS,2019.0,Australia,AUS,8.84,1.0,9.3,8.2,Mosman,-33.83902,151.23956,AU,26236
3942,AU,AUS,2019.0,Australia,AUS,8.84,1.0,9.3,8.2,Mornington,-38.21792,145.03876,AU,22421
3943,AU,AUS,2019.0,Australia,AUS,8.84,1.0,9.3,8.2,Morayfield,-27.10876,152.94907,AU,18020
3944,AU,AUS,2019.0,Australia,AUS,8.84,1.0,9.3,8.2,Moe,-38.17828,146.26099,AU,15582
3945,AU,AUS,2019.0,Australia,AUS,8.84,1.0,9.3,8.2,Mill Park,-37.66667,145.06667,AU,30517
3946,AU,AUS,2019.0,Australia,AUS,8.84,1.0,9.3,8.2,Mildura,-34.18551,142.16251,AU,30016
3947,AU,AUS,2019.0,Australia,AUS,8.84,1.0,9.3,8.2,Melton,-37.68339,144.58543,AU,35490
3948,AU,AUS,2019.0,Australia,AUS,8.84,1.0,9.3,8.2,Melbourne,-37.814,144.96332,AU,4246375
3949,AU,AUS,2019.0,Australia,AUS,8.84,1.0,9.3,8.2,Maryborough,-25.54073,152.70493,AU,21501
3950,AU,AUS,2019.0,Australia,AUS,8.84,1.0,9.3,8.2,Marrickville,-33.90318,151.15176,AU,23161
3951,AU,AUS,2019.0,Australia,AUS,8.84,1.0,9.3,8.2,Maroubra,-33.95,151.23333,AU,26538
3952,AU,AUS,2019.0,Australia,AUS,8.84,1.0,9.3,8.2,Maitland,-32.73308,151.5574,AU,67132
3953,AU,AUS,2019.0,Australia,AUS,8.84,1.0,9.3,8.2,Mackay,-21.15345,149.16554,AU,74219
3954,AU,AUS,2019.0,Australia,AUS,8.84,1.0,9.3,8.2,Liverpool,-33.9,150.93333,AU,21317
3955,AU,AUS,2019.0,Australia,AUS,8.84,1.0,9.3,8.2,Lismore,-28.81354,153.2773,AU,30086
3956,AU,AUS,2019.0,Australia,AUS,8.84,1.0,9.3,8.2,Lilydale,-37.75,145.35,AU,15649
3957,AU,AUS,2019.0,Australia,AUS,8.84,1.0,9.3,8.2,Launceston,-41.43876,147.13467,AU,106153
3958,AU,AUS,2019.0,Australia,AUS,8.84,1.0,9.3,8.2,Lara,-38.02388,144.40617,AU,15520
3959,AU,AUS,2019.0,Australia,AUS,8.84,1.0,9.3,8.2,Langwarrin,-38.16667,145.16667,AU,21371
3960,AU,AUS,2019.0,Australia,AUS,8.84,1.0,9.3,8.2,Lalor,-37.66667,145.01667,AU,19873
3961,AU,AUS,2019.0,Australia,AUS,8.84,1.0,9.3,8.2,Keysborough,-37.99116,145.17385,AU,22700
3962,AU,AUS,2019.0,Australia,AUS,8.84,1.0,9.3,8.2,Kew,-37.80639,145.03086,AU,23876
3963,AU,AUS,2019.0,Australia,AUS,8.84,1.0,9.3,8.2,Katoomba,-33.71977,150.30739,AU,18593
3964,AU,AUS,2019.0,Australia,AUS,8.84,1.0,9.3,8.2,Hornsby,-33.70244,151.09931,AU,19863
3965,AU,AUS,2019.0,Australia,AUS,8.84,1.0,9.3,8.2,Hobart,-42.87936,147.32941,AU,216656
3966,AU,AUS,2019.0,Australia,AUS,8.84,1.0,9.3,8.2,Hawthorn South,-37.8329,145.0367,AU,21177
3967,AU,AUS,2019.0,Australia,AUS,8.84,1.0,9.3,8.2,Hampton Park,-38.03333,145.25,AU,23767
3968,AU,AUS,2019.0,Australia,AUS,8.84,1.0,9.3,8.2,Griffith,-34.28853,146.05093,AU,15455
3969,AU,AUS,2019.0,Australia,AUS,8.84,1.0,9.3,8.2,Greensborough,-37.70462,145.10302,AU,20214
3970,AU,AUS,2019.0,Australia,AUS,8.84,1.0,9.3,8.2,Granville,-33.83333,151.01667,AU,22889
3971,AU,AUS,2019.0,Australia,AUS,8.84,1.0,9.3,8.2,Goulburn,-34.75155,149.72086,AU,20940
3972,AU,AUS,2019.0,Australia,AUS,8.84,1.0,9.3,8.2,Gold Coast,-28.00029,153.43088,AU,591473
3973,AU,AUS,2019.0,Australia,AUS,8.84,1.0,9.3,8.2,Glenroy,-37.7,144.93333,AU,19644
3974,AU,AUS,2019.0,Australia,AUS,8.84,1.0,9.3,8.2,Glenferrie,-37.83333,145.05,AU,21177
3975,AU,AUS,2019.0,Australia,AUS,8.84,1.0,9.3,8.2,Gladstone,-23.84852,151.25775,AU,30489
3976,AU,AUS,2019.0,Australia,AUS,8.84,1.0,9.3,8.2,Geelong,-38.14711,144.36069,AU,226034
3977,AU,AUS,2019.0,Australia,AUS,8.84,1.0,9.3,8.2,Frankston East,-38.13333,145.13333,AU,34457
3978,AU,AUS,2019.0,Australia,AUS,8.84,1.0,9.3,8.2,Frankston,-38.14458,145.12291,AU,34457
3979,AU,AUS,2019.0,Australia,AUS,8.84,1.0,9.3,8.2,Forster,-32.18136,152.51715,AU,17591
3980,AU,AUS,2019.0,Australia,AUS,8.84,1.0,9.3,8.2,Essendon,-37.76667,144.91667,AU,18852
3981,AU,AUS,2019.0,Australia,AUS,8.84,1.0,9.3,8.2,Epping,-37.65,145.03333,AU,32200
3982,AU,AUS,2019.0,Australia,AUS,8.84,1.0,9.3,8.2,Epping,-33.77271,151.08184,AU,18969
3983,AU,AUS,2019.0,Australia,AUS,8.84,1.0,9.3,8.2,Engadine,-34.06564,151.01266,AU,17937
3984,AU,AUS,2019.0,Australia,AUS,8.84,1.0,9.3,8.2,Eltham,-37.73333,145.15,AU,18162
3985,AU,AUS,2019.0,Australia,AUS,8.84,1.0,9.3,8.2,Echuca,-36.14057,144.75185,AU,19457
3986,AU,AUS,2019.0,Australia,AUS,8.84,1.0,9.3,8.2,Earlwood,-33.95,151.1,AU,16564
3987,AU,AUS,2019.0,Australia,AUS,8.84,1.0,9.3,8.2,Dubbo,-32.24295,148.60484,AU,32327
3988,AU,AUS,2019.0,Australia,AUS,8.84,1.0,9.3,8.2,Doncaster East,-37.78761,145.14888,AU,27047
3989,AU,AUS,2019.0,Australia,AUS,8.84,1.0,9.3,8.2,Doncaster,-37.78828,145.12373,AU,18359
3990,AU,AUS,2019.0,Australia,AUS,8.84,1.0,9.3,8.2,Devonport,-41.17695,146.35152,AU,19317
3991,AU,AUS,2019.0,Australia,AUS,8.84,1.0,9.3,8.2,Deer Park,-37.76667,144.78333,AU,16204
3992,AU,AUS,2019.0,Australia,AUS,8.84,1.0,9.3,8.2,Deception Bay,-27.19354,153.02631,AU,16090
3993,AU,AUS,2019.0,Australia,AUS,8.84,1.0,9.3,8.2,Dandenong,-37.98333,145.2,AU,24919
3994,AU,AUS,2019.0,Australia,AUS,8.84,1.0,9.3,8.2,Cronulla,-34.06251,151.14961,AU,16754
3995,AU,AUS,2019.0,Australia,AUS,8.84,1.0,9.3,8.2,Cranbourne,-38.1,145.28333,AU,39419
3996,AU,AUS,2019.0,Australia,AUS,8.84,1.0,9.3,8.2,Cranbourne,-38.11342,145.28326,AU,18622
3997,AU,AUS,2019.0,Australia,AUS,8.84,1.0,9.3,8.2,Craigieburn,-37.6,144.95,AU,19728
3998,AU,AUS,2019.0,Australia,AUS,8.84,1.0,9.3,8.2,Coffs Harbour,-30.29626,153.11351,AU,26353
3999,AU,AUS,2019.0,Australia,AUS,8.84,1.0,9.3,8.2,Coburg,-37.75,144.96667,AU,24977
4000,AU,AUS,2019.0,Australia,AUS,8.84,1.0,9.3,8.2,Clayton,-37.91667,145.11667,AU,15543
4001,AU,AUS,2019.0,Australia,AUS,8.84,1.0,9.3,8.2,Wollongong,-34.424,150.89345,AU,292190
4002,AU,AUS,2019.0,Australia,AUS,8.84,1.0,9.3,8.2,Cessnock,-32.83211,151.35623,AU,16393
4003,AU,AUS,2019.0,Australia,AUS,8.84,1.0,9.3,8.2,Castle Hill,-33.73333,151,AU,35389
4004,AU,AUS,2019.0,Australia,AUS,8.84,1.0,9.3,8.2,Carrum Downs,-38.09968,145.17248,AU,17213
4005,AU,AUS,2019.0,Australia,AUS,8.84,1.0,9.3,8.2,Carnegie,-37.88333,145.06667,AU,16299
4006,AU,AUS,2019.0,Australia,AUS,8.84,1.0,9.3,8.2,Carlingford,-33.78269,151.04888,AU,21364
4007,AU,AUS,2019.0,Australia,AUS,8.84,1.0,9.3,8.2,Caringbah,-34.04726,151.12051,AU,21283
4008,AU,AUS,2019.0,Australia,AUS,8.84,1.0,9.3,8.2,Canberra,-35.28346,149.12807,AU,367752
4009,AU,AUS,2019.0,Australia,AUS,8.84,1.0,9.3,8.2,Camberwell,-37.84205,145.0694,AU,19637
4010,AU,AUS,2019.0,Australia,AUS,8.84,1.0,9.3,8.2,Caloundra,-26.80346,153.12195,AU,38706
4011,AU,AUS,2019.0,Australia,AUS,8.84,1.0,9.3,8.2,Cairns,-16.92304,145.76625,AU,153075
4012,AU,AUS,2019.0,Australia,AUS,8.84,1.0,9.3,8.2,Caboolture,-27.08465,152.9511,AU,21478
4013,AU,AUS,2019.0,Australia,AUS,8.84,1.0,9.3,8.2,Burnie,-41.05584,145.90375,AU,19972
4014,AU,AUS,2019.0,Australia,AUS,8.84,1.0,9.3,8.2,Bundaberg,-24.86621,152.3479,AU,70826
4015,AU,AUS,2019.0,Australia,AUS,8.84,1.0,9.3,8.2,Buderim,-26.68443,153.05705,AU,15228
4016,AU,AUS,2019.0,Australia,AUS,8.84,1.0,9.3,8.2,Brunswick,-37.76667,144.96667,AU,19867
4017,AU,AUS,2019.0,Australia,AUS,8.84,1.0,9.3,8.2,Broken Hill,-31.9652,141.4512,AU,18430
4018,AU,AUS,2019.0,Australia,AUS,8.84,1.0,9.3,8.2,Brisbane,-27.46794,153.02809,AU,2189878
4019,AU,AUS,2019.0,Australia,AUS,8.84,1.0,9.3,8.2,Boronia,-37.86667,145.28333,AU,20825
4020,AU,AUS,2019.0,Australia,AUS,8.84,1.0,9.3,8.2,Blacktown,-33.76667,150.91667,AU,39000
4021,AU,AUS,2019.0,Australia,AUS,8.84,1.0,9.3,8.2,Berwick,-38.03333,145.35,AU,44779
4022,AU,AUS,2019.0,Australia,AUS,8.84,1.0,9.3,8.2,Bendigo,-36.75818,144.28024,AU,100617
4023,AU,AUS,2019.0,Australia,AUS,8.84,1.0,9.3,8.2,Baulkham Hills,-33.75881,150.99292,AU,33945
4024,AU,AUS,2019.0,Australia,AUS,8.84,1.0,9.3,8.2,Bathurst,-33.41665,149.5806,AU,33110
4025,AU,AUS,2019.0,Australia,AUS,8.84,1.0,9.3,8.2,Banora Point,-28.21298,153.53634,AU,27368
4026,AU,AUS,2019.0,Australia,AUS,8.84,1.0,9.3,8.2,Bankstown,-33.91667,151.03333,AU,30572
4027,AU,AUS,2019.0,Australia,AUS,8.84,1.0,9.3,8.2,Ballarat,-37.56622,143.84957,AU,97937
4028,AU,AUS,2019.0,Australia,AUS,8.84,1.0,9.3,8.2,Auburn,-33.85,151.03333,AU,33122
4029,AU,AUS,2019.0,Australia,AUS,8.84,1.0,9.3,8.2,Ashfield,-33.88834,151.12274,AU,22000
4030,AU,AUS,2019.0,Australia,AUS,8.84,1.0,9.3,8.2,Armidale,-30.50123,151.66553,AU,22673
4031,AU,AUS,2019.0,Australia,AUS,8.84,1.0,9.3,8.2,Albury,-36.07482,146.92401,AU,45627
4032,AU,AUS,2019.0,Australia,AUS,8.84,1.0,9.3,8.2,South Brisbane,-27.48034,153.02049,AU,60000
4033,AU,AUS,2019.0,Australia,AUS,8.84,1.0,9.3,8.2,Cheltenham,-37.96944,145.04806,AU,20292
4034,AU,AUS,2019.0,Australia,AUS,8.84,1.0,9.3,8.2,Randwick,-33.91439,151.24895,AU,25819
4035,AU,AUS,2019.0,Australia,AUS,8.84,1.0,9.3,8.2,Dee Why,-33.75,151.3,AU,17463
4036,AU,AUS,2019.0,Australia,AUS,8.84,1.0,9.3,8.2,Umina,-33.52314,151.31325,AU,16059
4037,AU,AUS,2019.0,Australia,AUS,8.84,1.0,9.3,8.2,Palmerston,-12.48602,130.9833,AU,25000
4038,AU,AUS,2019.0,Australia,AUS,8.84,1.0,9.3,8.2,Bracken Ridge,-27.3171,153.03097,AU,15355
4039,AU,AUS,2019.0,Australia,AUS,8.84,1.0,9.3,8.2,North Ryde,-33.79677,151.12436,AU,17208
4040,AU,AUS,2019.0,Australia,AUS,8.84,1.0,9.3,8.2,Hoppers Crossing,-37.88264,144.7003,AU,38108
4041,AU,AUS,2019.0,Australia,AUS,8.84,1.0,9.3,8.2,Logan City,-27.63917,153.10944,AU,282673
4042,AU,AUS,2019.0,Australia,AUS,8.84,1.0,9.3,8.2,Carindale,-27.50578,153.10236,AU,15135
4043,AU,AUS,2019.0,Australia,AUS,8.84,1.0,9.3,8.2,Parramatta,-33.8178,151.00348,AU,18448
4044,AU,AUS,2019.0,Australia,AUS,8.84,1.0,9.3,8.2,Ferntree Gully,-37.88461,145.29539,AU,24724
4045,AU,AUS,2019.0,Australia,AUS,8.84,1.0,9.3,8.2,City of Parramatta,-33.81667,151,AU,19745
4046,AU,AUS,2019.0,Australia,AUS,8.84,1.0,9.3,8.2,Adelaide Hills,-34.91119,138.70735,AU,60394
4047,AU,AUS,2019.0,Australia,AUS,8.84,1.0,9.3,8.2,Canning Vale,-32.05799,115.91814,AU,23289
4048,AU,AUS,2019.0,Australia,AUS,8.84,1.0,9.3,8.2,Glenmore Park,-33.79068,150.6693,AU,19200
4049,AU,AUS,2019.0,Australia,AUS,8.84,1.0,9.3,8.2,Glen Iris,-37.85995,145.05489,AU,23270
4050,AU,AUS,2019.0,Australia,AUS,8.84,1.0,9.3,8.2,Balwyn North,-37.79086,145.09386,AU,19968
4051,AU,AUS,2019.0,Australia,AUS,8.84,1.0,9.3,8.2,Malvern East,-37.87397,145.04253,AU,19593
4052,AU,AUS,2019.0,Australia,AUS,8.84,1.0,9.3,8.2,Brighton East,-37.90232,145.01734,AU,15167
4053,AU,AUS,2019.0,Australia,AUS,8.84,1.0,9.3,8.2,Booval,-27.61328,152.78944,AU,20540
4054,AU,AUS,2019.0,Australia,AUS,8.84,1.0,9.3,8.2,St Albans,-37.74496,144.80049,AU,33511
4055,AU,AUS,2019.0,Australia,AUS,8.84,1.0,9.3,8.2,Endeavour Hills,-37.97695,145.25866,AU,25000
4056,AU,AUS,2019.0,Australia,AUS,8.84,1.0,9.3,8.2,Taylors Lakes,-37.69863,144.78631,AU,16095
4057,AU,AUS,2019.0,Australia,AUS,8.84,1.0,9.3,8.2,Roxburgh Park,-37.62581,144.92555,AU,19235
4058,AU,AUS,2019.0,Australia,AUS,8.84,1.0,9.3,8.2,Wyndham Vale,-37.8415,144.54101,AU,17304
4059,AU,AUS,2019.0,Australia,AUS,8.84,1.0,9.3,8.2,Willetton,-32.05251,115.88782,AU,17243
4060,AU,AUS,2019.0,Australia,AUS,8.84,1.0,9.3,8.2,Thornlie,-32.06003,115.955,AU,22265
4061,AU,AUS,2019.0,Australia,AUS,8.84,1.0,9.3,8.2,Hillside,-37.69047,144.74172,AU,16326
4062,AU,AUS,2019.0,Australia,AUS,8.84,1.0,9.3,8.2,Bundoora,-37.69825,145.05967,AU,25709
4063,AU,AUS,2019.0,Australia,AUS,8.84,1.0,9.3,8.2,Forest Lake,-27.62563,152.96883,AU,22426
4064,AU,AUS,2019.0,Australia,AUS,8.84,1.0,9.3,8.2,Sunnybank Hills,-27.61025,153.05388,AU,16830
4065,AU,AUS,2019.0,Australia,AUS,8.84,1.0,9.3,8.2,Narre Warren South,-38.04369,145.2923,AU,28594
4066,AU,AUS,2019.0,Australia,AUS,8.84,1.0,9.3,8.2,Dandenong North,-37.96649,145.2081,AU,21910
4067,AU,AUS,2019.0,Australia,AUS,8.84,1.0,9.3,8.2,Frankston South,-38.16604,145.13643,AU,17360
4068,AU,AUS,2019.0,Australia,AUS,8.84,1.0,9.3,8.2,Sunshine West,-37.79117,144.81637,AU,16743
4069,AU,AUS,2019.0,Australia,AUS,8.84,1.0,9.3,8.2,Altona Meadows,-37.88413,144.78367,AU,18746
4070,AU,AUS,2019.0,Australia,AUS,8.84,1.0,9.3,8.2,West Pennant,-33.7457,151.04764,AU,15967
6284,AZ,AZE,2019.0,Azerbaijan,AZE,6.16,4.0,5.96,6.44,Xankandi,39.8177,46.7528,AZ,53100
6285,AZ,AZE,2019.0,Azerbaijan,AZE,6.16,4.0,5.96,6.44,Ahmadbayli,39.87867,48.39901,AZ,17242
6286,AZ,AZE,2019.0,Azerbaijan,AZE,6.16,4.0,5.96,6.44,Shushi,39.76006,46.74989,AZ,18662
6287,AZ,AZE,2019.0,Azerbaijan,AZE,6.16,4.0,5.96,6.44,Salyan,39.59621,48.98479,AZ,36555
6288,AZ,AZE,2019.0,Azerbaijan,AZE,6.16,4.0,5.96,6.44,Saatli,39.93214,48.36892,AZ,87000
6289,AZ,AZE,2019.0,Azerbaijan,AZE,6.16,4.0,5.96,6.44,Neftcala,39.3768,49.247,AZ,18661
6290,AZ,AZE,2019.0,Azerbaijan,AZE,6.16,4.0,5.96,6.44,Nakhchivan,39.20889,45.41222,AZ,64754
6291,AZ,AZE,2019.0,Azerbaijan,AZE,6.16,4.0,5.96,6.44,Lankaran,38.75428,48.85062,AZ,240300
6292,AZ,AZE,2019.0,Azerbaijan,AZE,6.16,4.0,5.96,6.44,Imishli,39.87095,48.05995,AZ,34178
6293,AZ,AZE,2019.0,Azerbaijan,AZE,6.16,4.0,5.96,6.44,Fizuli,39.60094,47.14529,AZ,26765
6294,AZ,AZE,2019.0,Azerbaijan,AZE,6.16,4.0,5.96,6.44,Dzhalilabad,39.20963,48.49186,AZ,36259
6295,AZ,AZE,2019.0,Azerbaijan,AZE,6.16,4.0,5.96,6.44,Pushkino,39.45833,48.545,AZ,18182
6296,AZ,AZE,2019.0,Azerbaijan,AZE,6.16,4.0,5.96,6.44,Beylagan,39.77556,47.61861,AZ,15599
6297,AZ,AZE,2019.0,Azerbaijan,AZE,6.16,4.0,5.96,6.44,Astara,38.45598,48.87498,AZ,15190
6298,AZ,AZE,2019.0,Azerbaijan,AZE,6.16,4.0,5.96,6.44,Sirvan,39.93778,48.929,AZ,70220
6299,AZ,AZE,2019.0,Azerbaijan,AZE,6.16,4.0,5.96,6.44,Agdam,39.99096,46.92736,AZ,39451
6300,AZ,AZE,2019.0,Azerbaijan,AZE,6.16,4.0,5.96,6.44,Zaqatala,41.6316,46.64479,AZ,18277
6301,AZ,AZE,2019.0,Azerbaijan,AZE,6.16,4.0,5.96,6.44,Zabrat,40.47746,49.94174,AZ,21396
6302,AZ,AZE,2019.0,Azerbaijan,AZE,6.16,4.0,5.96,6.44,Yevlakh,40.61832,47.15014,AZ,59036
6303,AZ,AZE,2019.0,Azerbaijan,AZE,6.16,4.0,5.96,6.44,Yelenendorf,40.58584,46.3189,AZ,17816
6304,AZ,AZE,2019.0,Azerbaijan,AZE,6.16,4.0,5.96,6.44,Xacmaz,41.46426,48.80565,AZ,37175
6305,AZ,AZE,2019.0,Azerbaijan,AZE,6.16,4.0,5.96,6.44,Ujar,40.51902,47.65423,AZ,15741
6306,AZ,AZE,2019.0,Azerbaijan,AZE,6.16,4.0,5.96,6.44,Terter,40.34179,46.93242,AZ,18185
6307,AZ,AZE,2019.0,Azerbaijan,AZE,6.16,4.0,5.96,6.44,Sumqayit,40.58972,49.66861,AZ,265150
6308,AZ,AZE,2019.0,Azerbaijan,AZE,6.16,4.0,5.96,6.44,Qaracuxur,40.39667,49.97361,AZ,72989
6309,AZ,AZE,2019.0,Azerbaijan,AZE,6.16,4.0,5.96,6.44,Shamkhor,40.82975,46.0178,AZ,35421
6310,AZ,AZE,2019.0,Azerbaijan,AZE,6.16,4.0,5.96,6.44,Shamakhi,40.63141,48.64137,AZ,29403
6311,AZ,AZE,2019.0,Azerbaijan,AZE,6.16,4.0,5.96,6.44,Sheki,41.19194,47.17056,AZ,63000
6312,AZ,AZE,2019.0,Azerbaijan,AZE,6.16,4.0,5.96,6.44,Sabuncu,40.4425,49.94806,AZ,20996
6313,AZ,AZE,2019.0,Azerbaijan,AZE,6.16,4.0,5.96,6.44,Sabirabad,40.00869,48.47701,AZ,28075
6314,AZ,AZE,2019.0,Azerbaijan,AZE,6.16,4.0,5.96,6.44,Qusar,41.4275,48.4302,AZ,16022
6315,AZ,AZE,2019.0,Azerbaijan,AZE,6.16,4.0,5.96,6.44,Quba,41.36108,48.51341,AZ,22405
6316,AZ,AZE,2019.0,Azerbaijan,AZE,6.16,4.0,5.96,6.44,Haciqabul,40.03874,48.94286,AZ,23102
6317,AZ,AZE,2019.0,Azerbaijan,AZE,6.16,4.0,5.96,6.44,Qazax,41.09246,45.36561,AZ,18903
6318,AZ,AZE,2019.0,Azerbaijan,AZE,6.16,4.0,5.96,6.44,Haci Zeynalabdin,40.62333,49.55861,AZ,19019
6319,AZ,AZE,2019.0,Azerbaijan,AZE,6.16,4.0,5.96,6.44,Mingelchaur,40.76395,47.05953,AZ,95453
6320,AZ,AZE,2019.0,Azerbaijan,AZE,6.16,4.0,5.96,6.44,Mastaga,40.52983,50.00616,AZ,40092
6321,AZ,AZE,2019.0,Azerbaijan,AZE,6.16,4.0,5.96,6.44,Mardakan,40.49182,50.14292,AZ,15267
6322,AZ,AZE,2019.0,Azerbaijan,AZE,6.16,4.0,5.96,6.44,Lokbatan,40.3256,49.73376,AZ,30694
6323,AZ,AZE,2019.0,Azerbaijan,AZE,6.16,4.0,5.96,6.44,Kyurdarmir,40.34532,48.15085,AZ,19088
6324,AZ,AZE,2019.0,Azerbaijan,AZE,6.16,4.0,5.96,6.44,Khirdalan,40.44808,49.75502,AZ,37949
6325,AZ,AZE,2019.0,Azerbaijan,AZE,6.16,4.0,5.96,6.44,Yeni Suraxani,40.43026,50.03598,AZ,16127
6326,AZ,AZE,2019.0,Azerbaijan,AZE,6.16,4.0,5.96,6.44,Geoktschai,40.65055,47.74219,AZ,35348
6327,AZ,AZE,2019.0,Azerbaijan,AZE,6.16,4.0,5.96,6.44,Hovsan,40.37444,50.08528,AZ,36293
6328,AZ,AZE,2019.0,Azerbaijan,AZE,6.16,4.0,5.96,6.44,Ganja,40.68278,46.36056,AZ,313300
6329,AZ,AZE,2019.0,Azerbaijan,AZE,6.16,4.0,5.96,6.44,Divichibazar,41.20117,48.98712,AZ,23248
6330,AZ,AZE,2019.0,Azerbaijan,AZE,6.16,4.0,5.96,6.44,Buzovna,40.51903,50.11438,AZ,24795
6331,AZ,AZE,2019.0,Azerbaijan,AZE,6.16,4.0,5.96,6.44,Biny Selo,40.45076,50.08686,AZ,24596
6332,AZ,AZE,2019.0,Azerbaijan,AZE,6.16,4.0,5.96,6.44,Barda,40.37577,47.12619,AZ,37372
6333,AZ,AZE,2019.0,Azerbaijan,AZE,6.16,4.0,5.96,6.44,Bilajari,40.4444,49.80566,AZ,42194
6334,AZ,AZE,2019.0,Azerbaijan,AZE,6.16,4.0,5.96,6.44,Baku,40.37767,49.89201,AZ,1116513
6335,AZ,AZE,2019.0,Azerbaijan,AZE,6.16,4.0,5.96,6.44,Amirdzhan,40.42639,49.98361,AZ,26798
6336,AZ,AZE,2019.0,Azerbaijan,AZE,6.16,4.0,5.96,6.44,Aghsu,40.57028,48.40087,AZ,17209
6337,AZ,AZE,2019.0,Azerbaijan,AZE,6.16,4.0,5.96,6.44,Agdas,40.64699,47.4738,AZ,23528
6338,AZ,AZE,2019.0,Azerbaijan,AZE,6.16,4.0,5.96,6.44,Agdzhabedy,40.05015,47.45937,AZ,34989
6339,AZ,AZE,2019.0,Azerbaijan,AZE,6.16,4.0,5.96,6.44,Bakixanov,40.41894,49.96693,AZ,66686
6956,BA,BIH,2019.0,Bosnia and Herzegovina,BIH,7.54,2.0,8.03,6.86,Zenica,44.20169,17.90397,BA,164423
6957,BA,BIH,2019.0,Bosnia and Herzegovina,BIH,7.54,2.0,8.03,6.86,Visoko,43.98889,18.17806,BA,17890
6958,BA,BIH,2019.0,Bosnia and Herzegovina,BIH,7.54,2.0,8.03,6.86,Velika Kladusa,45.18497,15.80579,BA,19330
6959,BA,BIH,2019.0,Bosnia and Herzegovina,BIH,7.54,2.0,8.03,6.86,Tuzla,44.53842,18.66709,BA,142486
6960,BA,BIH,2019.0,Bosnia and Herzegovina,BIH,7.54,2.0,8.03,6.86,Trebinje,42.71197,18.34362,BA,33178
6961,BA,BIH,2019.0,Bosnia and Herzegovina,BIH,7.54,2.0,8.03,6.86,Travnik,44.22637,17.66583,BA,31127
6962,BA,BIH,2019.0,Bosnia and Herzegovina,BIH,7.54,2.0,8.03,6.86,Sarajevo,43.84864,18.35644,BA,696731
6963,BA,BIH,2019.0,Bosnia and Herzegovina,BIH,7.54,2.0,8.03,6.86,Prijedor,44.97991,16.71401,BA,36347
6964,BA,BIH,2019.0,Bosnia and Herzegovina,BIH,7.54,2.0,8.03,6.86,Mostar,43.34333,17.80806,BA,104518
6965,BA,BIH,2019.0,Bosnia and Herzegovina,BIH,7.54,2.0,8.03,6.86,Gradacac,44.87851,18.42764,BA,15659
6966,BA,BIH,2019.0,Bosnia and Herzegovina,BIH,7.54,2.0,8.03,6.86,Gracanica,44.70307,18.3101,BA,15758
6967,BA,BIH,2019.0,Bosnia and Herzegovina,BIH,7.54,2.0,8.03,6.86,Gorazde,43.66795,18.97564,BA,17650
6968,BA,BIH,2019.0,Bosnia and Herzegovina,BIH,7.54,2.0,8.03,6.86,Doboj,44.73179,18.08698,BA,27235
6969,BA,BIH,2019.0,Bosnia and Herzegovina,BIH,7.54,2.0,8.03,6.86,Cazin,44.96694,15.94306,BA,21741
6970,BA,BIH,2019.0,Bosnia and Herzegovina,BIH,7.54,2.0,8.03,6.86,Bugojno,44.05722,17.45083,BA,41378
6971,BA,BIH,2019.0,Bosnia and Herzegovina,BIH,7.54,2.0,8.03,6.86,Brcko,44.86995,18.81012,BA,38968
6972,BA,BIH,2019.0,Bosnia and Herzegovina,BIH,7.54,2.0,8.03,6.86,Bosanska Krupa,44.8825,16.15139,BA,15193
6973,BA,BIH,2019.0,Bosnia and Herzegovina,BIH,7.54,2.0,8.03,6.86,Bijeljina,44.75874,19.21437,BA,37692
6974,BA,BIH,2019.0,Bosnia and Herzegovina,BIH,7.54,2.0,8.03,6.86,Bihac,44.81694,15.87083,BA,75641
6975,BA,BIH,2019.0,Bosnia and Herzegovina,BIH,7.54,2.0,8.03,6.86,Banja Luka,44.77842,17.19386,BA,221106
6976,BA,BIH,2019.0,Bosnia and Herzegovina,BIH,7.54,2.0,8.03,6.86,Konjic,43.65126,17.96082,BA,15950
7208,BB,BRB,2019.0,Barbados,BRB,7.92,2.0,8.65,6.91,Bridgetown,13.10732,-59.62021,BB,98511
7220,BD,BGD,2019.0,Bangladesh,BGD,5.75,4.0,5.52,6.05,Thakurgaon,26.03097,88.46989,BD,71096
7221,BD,BGD,2019.0,Bangladesh,BGD,5.75,4.0,5.52,6.05,Teknaf,20.85829,92.29773,BD,40557
7222,BD,BGD,2019.0,Bangladesh,BGD,5.75,4.0,5.52,6.05,Tungi,23.89154,90.40232,BD,337579
7223,BD,BGD,2019.0,Bangladesh,BGD,5.75,4.0,5.52,6.05,Sylhet,24.89904,91.87198,BD,237000
7224,BD,BGD,2019.0,Bangladesh,BGD,5.75,4.0,5.52,6.05,Dohar,23.59311,90.14251,BD,45543
7225,BD,BGD,2019.0,Bangladesh,BGD,5.75,4.0,5.52,6.05,Jamalpur,24.91965,89.94812,BD,167900
7226,BD,BGD,2019.0,Bangladesh,BGD,5.75,4.0,5.52,6.05,Shibganj,25.00146,89.32266,BD,378701
7227,BD,BGD,2019.0,Bangladesh,BGD,5.75,4.0,5.52,6.05,Shibganj,24.68501,88.15638,BD,35961
7228,BD,BGD,2019.0,Bangladesh,BGD,5.75,4.0,5.52,6.05,Satkhira,22.70817,89.07185,BD,128918
7229,BD,BGD,2019.0,Bangladesh,BGD,5.75,4.0,5.52,6.05,Sirajganj,24.45771,89.70802,BD,127481
7230,BD,BGD,2019.0,Bangladesh,BGD,5.75,4.0,5.52,6.05,Netrakona,24.88352,90.72898,BD,79016
7231,BD,BGD,2019.0,Bangladesh,BGD,5.75,4.0,5.52,6.05,Narsingdi,23.92298,90.71768,BD,281080
7232,BD,BGD,2019.0,Bangladesh,BGD,5.75,4.0,5.52,6.05,Sandwip,22.51409,91.45491,BD,52152
7233,BD,BGD,2019.0,Bangladesh,BGD,5.75,4.0,5.52,6.05,Shahzadpur,24.17687,89.5988,BD,102420
7234,BD,BGD,2019.0,Bangladesh,BGD,5.75,4.0,5.52,6.05,Ramganj,23.1006,90.84989,BD,55241
7235,BD,BGD,2019.0,Bangladesh,BGD,5.75,4.0,5.52,6.05,Rajshahi,24.374,88.60114,BD,700133
7236,BD,BGD,2019.0,Bangladesh,BGD,5.75,4.0,5.52,6.05,Pirojpur,22.57965,89.97521,BD,54418
7237,BD,BGD,2019.0,Bangladesh,BGD,5.75,4.0,5.52,6.05,Panchagarh,26.33338,88.55777,BD,48531
7238,BD,BGD,2019.0,Bangladesh,BGD,5.75,4.0,5.52,6.05,Patiya,22.29543,91.979,BD,51360
7239,BD,BGD,2019.0,Bangladesh,BGD,5.75,4.0,5.52,6.05,Parbatipur,25.66369,88.93093,BD,48020
7240,BD,BGD,2019.0,Bangladesh,BGD,5.75,4.0,5.52,6.05,Narayanganj,23.61352,90.50298,BD,223622
7241,BD,BGD,2019.0,Bangladesh,BGD,5.75,4.0,5.52,6.05,Nalchiti,22.63696,90.27195,BD,38703
7242,BD,BGD,2019.0,Bangladesh,BGD,5.75,4.0,5.52,6.05,Nagarpur,24.05783,89.87696,BD,238422
7243,BD,BGD,2019.0,Bangladesh,BGD,5.75,4.0,5.52,6.05,Nageswari,25.96817,89.69153,BD,49425
7244,BD,BGD,2019.0,Bangladesh,BGD,5.75,4.0,5.52,6.05,Mymensingh,24.75636,90.40646,BD,225126
7245,BD,BGD,2019.0,Bangladesh,BGD,5.75,4.0,5.52,6.05,Muktagacha,24.76484,90.25698,BD,24684
7246,BD,BGD,2019.0,Bangladesh,BGD,5.75,4.0,5.52,6.05,Mirzapur,24.10287,90.09841,BD,41137
7247,BD,BGD,2019.0,Bangladesh,BGD,5.75,4.0,5.52,6.05,Maulavi Bazar,24.48888,91.77075,BD,57441
7248,BD,BGD,2019.0,Bangladesh,BGD,5.75,4.0,5.52,6.05,Morrelgonj,22.45566,89.85584,BD,31647
7249,BD,BGD,2019.0,Bangladesh,BGD,5.75,4.0,5.52,6.05,Mehendiganj,22.82257,90.52859,BD,39424
7250,BD,BGD,2019.0,Bangladesh,BGD,5.75,4.0,5.52,6.05,Mathba,22.28616,89.95883,BD,29760
7251,BD,BGD,2019.0,Bangladesh,BGD,5.75,4.0,5.52,6.05,Lalmonirhat,25.91719,89.44595,BD,65127
7252,BD,BGD,2019.0,Bangladesh,BGD,5.75,4.0,5.52,6.05,Laksham,23.24018,91.12143,BD,82290
7253,BD,BGD,2019.0,Bangladesh,BGD,5.75,4.0,5.52,6.05,Comilla,23.46186,91.18503,BD,389411
7254,BD,BGD,2019.0,Bangladesh,BGD,5.75,4.0,5.52,6.05,Rangpur,25.74664,89.25166,BD,343122
7255,BD,BGD,2019.0,Bangladesh,BGD,5.75,4.0,5.52,6.05,Kushtia,23.9028,89.11943,BD,135724
7256,BD,BGD,2019.0,Bangladesh,BGD,5.75,4.0,5.52,6.05,Kaliganj,23.40964,89.13801,BD,45631
7257,BD,BGD,2019.0,Bangladesh,BGD,5.75,4.0,5.52,6.05,Jhingergacha,23.11134,89.09061,BD,41957
7258,BD,BGD,2019.0,Bangladesh,BGD,5.75,4.0,5.52,6.05,Joypur Hat,25.10147,89.02734,BD,73068
7259,BD,BGD,2019.0,Bangladesh,BGD,5.75,4.0,5.52,6.05,Ishurdi,24.12858,89.06573,BD,81995
7260,BD,BGD,2019.0,Bangladesh,BGD,5.75,4.0,5.52,6.05,Habiganj,24.38044,91.41299,BD,88760
7261,BD,BGD,2019.0,Bangladesh,BGD,5.75,4.0,5.52,6.05,Gaurnadi,22.97372,90.22376,BD,40519
7262,BD,BGD,2019.0,Bangladesh,BGD,5.75,4.0,5.52,6.05,Gafargaon,24.432,90.5585,BD,34177
7263,BD,BGD,2019.0,Bangladesh,BGD,5.75,4.0,5.52,6.05,Feni,23.0144,91.3966,BD,84028
7264,BD,BGD,2019.0,Bangladesh,BGD,5.75,4.0,5.52,6.05,Raipur,23.0391,90.76808,BD,64652
7265,BD,BGD,2019.0,Bangladesh,BGD,5.75,4.0,5.52,6.05,Sarankhola,22.31006,89.79113,BD,36470
7266,BD,BGD,2019.0,Bangladesh,BGD,5.75,4.0,5.52,6.05,Dhaka,23.7104,90.40744,BD,10356500
7267,BD,BGD,2019.0,Bangladesh,BGD,5.75,4.0,5.52,6.05,Chilmari,25.55613,89.67097,BD,49736
7268,BD,BGD,2019.0,Bangladesh,BGD,5.75,4.0,5.52,6.05,Chhagalnaiya,23.02475,91.51091,BD,39335
7269,BD,BGD,2019.0,Bangladesh,BGD,5.75,4.0,5.52,6.05,Lalmohan,22.33774,90.73708,BD,42220
7270,BD,BGD,2019.0,Bangladesh,BGD,5.75,4.0,5.52,6.05,Khagrachhari,23.10787,91.97007,BD,50364
7271,BD,BGD,2019.0,Bangladesh,BGD,5.75,4.0,5.52,6.05,Chhatak,25.03852,91.66958,BD,39218
7272,BD,BGD,2019.0,Bangladesh,BGD,5.75,4.0,5.52,6.05,Bhatpara Abhaynagar,23.01472,89.43936,BD,42653
7273,BD,BGD,2019.0,Bangladesh,BGD,5.75,4.0,5.52,6.05,Bheramara,24.02452,88.99234,BD,38159
7274,BD,BGD,2019.0,Bangladesh,BGD,5.75,4.0,5.52,6.05,Bhairab Bazar,24.0524,90.9764,BD,105457
7275,BD,BGD,2019.0,Bangladesh,BGD,5.75,4.0,5.52,6.05,Bandarban,22.19534,92.21946,BD,32523
7276,BD,BGD,2019.0,Bangladesh,BGD,5.75,4.0,5.52,6.05,Kalia,23.043,89.63094,BD,40492
7277,BD,BGD,2019.0,Bangladesh,BGD,5.75,4.0,5.52,6.05,Baniachang,24.51863,91.35787,BD,37807
7278,BD,BGD,2019.0,Bangladesh,BGD,5.75,4.0,5.52,6.05,Bajitpur,24.21623,90.95002,BD,34560
7279,BD,BGD,2019.0,Bangladesh,BGD,5.75,4.0,5.52,6.05,Bagerhat,22.65657,89.79123,BD,266388
7280,BD,BGD,2019.0,Bangladesh,BGD,5.75,4.0,5.52,6.05,Badarganj,25.67419,89.05377,BD,32600
7281,BD,BGD,2019.0,Bangladesh,BGD,5.75,4.0,5.52,6.05,Narail,23.15509,89.49515,BD,55112
7282,BD,BGD,2019.0,Bangladesh,BGD,5.75,4.0,5.52,6.05,Tungipara,22.89983,89.90326,BD,62210
7283,BD,BGD,2019.0,Bangladesh,BGD,5.75,4.0,5.52,6.05,Sonargaon,23.65,90.61667,BD,130000
7284,BD,BGD,2019.0,Bangladesh,BGD,5.75,4.0,5.52,6.05,Sarishabari,24.75127,89.83126,BD,81325
7285,BD,BGD,2019.0,Bangladesh,BGD,5.75,4.0,5.52,6.05,Sakhipur,24.31988,90.16943,BD,40869
7286,BD,BGD,2019.0,Bangladesh,BGD,5.75,4.0,5.52,6.05,Raojan,22.53511,91.91919,BD,25708
7287,BD,BGD,2019.0,Bangladesh,BGD,5.75,4.0,5.52,6.05,Phultala,22.71673,89.51194,BD,37985
7288,BD,BGD,2019.0,Bangladesh,BGD,5.75,4.0,5.52,6.05,Palang,23.21824,90.35076,BD,67652
7289,BD,BGD,2019.0,Bangladesh,BGD,5.75,4.0,5.52,6.05,Par Naogaon,24.80418,88.94875,BD,192464
7290,BD,BGD,2019.0,Bangladesh,BGD,5.75,4.0,5.52,6.05,Nabinagar,23.88791,90.96792,BD,31671
7291,BD,BGD,2019.0,Bangladesh,BGD,5.75,4.0,5.52,6.05,Lakshmipur,22.9443,90.83005,BD,61703
7292,BD,BGD,2019.0,Bangladesh,BGD,5.75,4.0,5.52,6.05,Kesabpur,22.90725,89.21954,BD,30926
7293,BD,BGD,2019.0,Bangladesh,BGD,5.75,4.0,5.52,6.05,Hajiganj,23.25191,90.85508,BD,44343
7294,BD,BGD,2019.0,Bangladesh,BGD,5.75,4.0,5.52,6.05,Faridpur,23.60612,89.84064,BD,112187
7295,BD,BGD,2019.0,Bangladesh,BGD,5.75,4.0,5.52,6.05,Dinajpur,25.62745,88.63779,BD,206234
7296,BD,BGD,2019.0,Bangladesh,BGD,5.75,4.0,5.52,6.05,Uttar Char Fasson,22.22647,90.71275,BD,48305
7297,BD,BGD,2019.0,Bangladesh,BGD,5.75,4.0,5.52,6.05,Chittagong,22.3384,91.83168,BD,3920222
7298,BD,BGD,2019.0,Bangladesh,BGD,5.75,4.0,5.52,6.05,Char Bhadrasan,23.30916,90.22698,BD,34423
7299,BD,BGD,2019.0,Bangladesh,BGD,5.75,4.0,5.52,6.05,Bera,24.07821,89.63262,BD,39604
7300,BD,BGD,2019.0,Bangladesh,BGD,5.75,4.0,5.52,6.05,Burhanuddin,22.49518,90.72391,BD,45670
7301,BD,BGD,2019.0,Bangladesh,BGD,5.75,4.0,5.52,6.05,Satkania,22.07639,92.04955,BD,52005
7302,BD,BGD,2019.0,Bangladesh,BGD,5.75,4.0,5.52,6.05,Cox's Bazar,21.43973,92.00955,BD,253788
7303,BD,BGD,2019.0,Bangladesh,BGD,5.75,4.0,5.52,6.05,Khulna,22.80979,89.56439,BD,1342339
7304,BD,BGD,2019.0,Bangladesh,BGD,5.75,4.0,5.52,6.05,Bhola,22.68759,90.64403,BD,99079
7305,BD,BGD,2019.0,Bangladesh,BGD,5.75,4.0,5.52,6.05,Barisal,22.70497,90.37013,BD,202242
7306,BD,BGD,2019.0,Bangladesh,BGD,5.75,4.0,5.52,6.05,Jessore,23.16971,89.21371,BD,243987
7307,BD,BGD,2019.0,Bangladesh,BGD,5.75,4.0,5.52,6.05,Pabna,24.00644,89.2372,BD,186781
7308,BD,BGD,2019.0,Bangladesh,BGD,5.75,4.0,5.52,6.05,Tangail,24.24984,89.91655,BD,180144
7309,BD,BGD,2019.0,Bangladesh,BGD,5.75,4.0,5.52,6.05,Bogra,24.85098,89.37108,BD,210000
7310,BD,BGD,2019.0,Bangladesh,BGD,5.75,4.0,5.52,6.05,Pirgaaj,25.85587,88.35943,BD,34606
7311,BD,BGD,2019.0,Bangladesh,BGD,5.75,4.0,5.52,6.05,Nawabganj,24.59025,88.27444,BD,142361
7312,BD,BGD,2019.0,Bangladesh,BGD,5.75,4.0,5.52,6.05,Madaripur,23.17097,90.20935,BD,84789
7313,BD,BGD,2019.0,Bangladesh,BGD,5.75,4.0,5.52,6.05,Sherpur,25.01881,90.01751,BD,107419
7314,BD,BGD,2019.0,Bangladesh,BGD,5.75,4.0,5.52,6.05,Kishorganj,24.43944,90.78291,BD,90690
7315,BD,BGD,2019.0,Bangladesh,BGD,5.75,4.0,5.52,6.05,Manikchari,22.83957,91.84128,BD,24813
7316,BD,BGD,2019.0,Bangladesh,BGD,5.75,4.0,5.52,6.05,Bhandaria,22.48898,90.06273,BD,30219
7317,BD,BGD,2019.0,Bangladesh,BGD,5.75,4.0,5.52,6.05,Fatikchari,22.68768,91.78123,BD,33200
7318,BD,BGD,2019.0,Bangladesh,BGD,5.75,4.0,5.52,6.05,Saidpur,25.77769,88.89169,BD,199422
7319,BD,BGD,2019.0,Bangladesh,BGD,5.75,4.0,5.52,6.05,Puthia,24.36537,88.83431,BD,159406
7320,BD,BGD,2019.0,Bangladesh,BGD,5.75,4.0,5.52,6.05,Natore,24.41112,88.98673,BD,369138
7321,BD,BGD,2019.0,Bangladesh,BGD,5.75,4.0,5.52,6.05,Azimpur,23.7298,90.3854,BD,96641
7322,BD,BGD,2019.0,Bangladesh,BGD,5.75,4.0,5.52,6.05,Paltan,23.73625,90.41426,BD,184492
7323,BD,BGD,2019.0,Bangladesh,BGD,5.75,4.0,5.52,6.05,Joymontop,23.78789,90.16472,BD,56000
8468,BE,BEL,2019.0,Belgium,BEL,8.61,1.0,9.31,7.62,Zwijndrecht,51.21979,4.32664,BE,18249
8469,BE,BEL,2019.0,Belgium,BEL,8.61,1.0,9.31,7.62,Zwevegem,50.81268,3.33848,BE,23358
8470,BE,BEL,2019.0,Belgium,BEL,8.61,1.0,9.31,7.62,Zottegem,50.86955,3.81052,BE,24434
8471,BE,BEL,2019.0,Belgium,BEL,8.61,1.0,9.31,7.62,Zonhoven,50.99064,5.36819,BE,19922
8472,BE,BEL,2019.0,Belgium,BEL,8.61,1.0,9.31,7.62,Zoersel,51.26825,4.71296,BE,20642
8473,BE,BEL,2019.0,Belgium,BEL,8.61,1.0,9.31,7.62,Zemst,50.98318,4.46079,BE,21096
8474,BE,BEL,2019.0,Belgium,BEL,8.61,1.0,9.31,7.62,Zele,51.06566,4.0403,BE,20236
8475,BE,BEL,2019.0,Belgium,BEL,8.61,1.0,9.31,7.62,Zedelgem,51.14236,3.1368,BE,21968
8476,BE,BEL,2019.0,Belgium,BEL,8.61,1.0,9.31,7.62,Zaventem,50.88365,4.47298,BE,28188
8477,BE,BEL,2019.0,Belgium,BEL,8.61,1.0,9.31,7.62,Wuustwezel,51.39214,4.59546,BE,18117
8478,BE,BEL,2019.0,Belgium,BEL,8.61,1.0,9.31,7.62,Willebroek,51.06041,4.36019,BE,22808
8479,BE,BEL,2019.0,Belgium,BEL,8.61,1.0,9.31,7.62,Wevelgem,50.8,3.16667,BE,30954
8480,BE,BEL,2019.0,Belgium,BEL,8.61,1.0,9.31,7.62,Wetteren,51.00526,3.88341,BE,22930
8481,BE,BEL,2019.0,Belgium,BEL,8.61,1.0,9.31,7.62,Westerlo,51.09049,4.91544,BE,22579
8482,BE,BEL,2019.0,Belgium,BEL,8.61,1.0,9.31,7.62,Wervik,50.78069,3.03854,BE,17340
8483,BE,BEL,2019.0,Belgium,BEL,8.61,1.0,9.31,7.62,Wavre,50.71717,4.60138,BE,32112
8484,BE,BEL,2019.0,Belgium,BEL,8.61,1.0,9.31,7.62,Waterloo,50.71469,4.3991,BE,29778
8485,BE,BEL,2019.0,Belgium,BEL,8.61,1.0,9.31,7.62,Waregem,50.88898,3.42756,BE,35896
8486,BE,BEL,2019.0,Belgium,BEL,8.61,1.0,9.31,7.62,Walcourt,50.25401,4.43796,BE,17501
8487,BE,BEL,2019.0,Belgium,BEL,8.61,1.0,9.31,7.62,Vise,50.7376,5.69907,BE,17054
8488,BE,BEL,2019.0,Belgium,BEL,8.61,1.0,9.31,7.62,Vilvoorde,50.92814,4.42938,BE,36955
8489,BE,BEL,2019.0,Belgium,BEL,8.61,1.0,9.31,7.62,Verviers,50.58907,5.86241,BE,52824
8490,BE,BEL,2019.0,Belgium,BEL,8.61,1.0,9.31,7.62,Turnhout,51.32254,4.94471,BE,39654
8491,BE,BEL,2019.0,Belgium,BEL,8.61,1.0,9.31,7.62,Tubize,50.69059,4.2009,BE,21859
8492,BE,BEL,2019.0,Belgium,BEL,8.61,1.0,9.31,7.62,Tournai,50.60715,3.38932,BE,67721
8493,BE,BEL,2019.0,Belgium,BEL,8.61,1.0,9.31,7.62,Torhout,51.0656,3.10085,BE,18933
8494,BE,BEL,2019.0,Belgium,BEL,8.61,1.0,9.31,7.62,Tongeren,50.78054,5.46484,BE,29816
8495,BE,BEL,2019.0,Belgium,BEL,8.61,1.0,9.31,7.62,Tienen,50.80745,4.9378,BE,31743
8496,BE,BEL,2019.0,Belgium,BEL,8.61,1.0,9.31,7.62,Tielt,50.99931,3.32707,BE,19299
8497,BE,BEL,2019.0,Belgium,BEL,8.61,1.0,9.31,7.62,Tessenderlo,51.06513,5.08856,BE,16574
8498,BE,BEL,2019.0,Belgium,BEL,8.61,1.0,9.31,7.62,Tervuren,50.82372,4.51418,BE,20623
8499,BE,BEL,2019.0,Belgium,BEL,8.61,1.0,9.31,7.62,Temse,51.12794,4.21372,BE,26054
8500,BE,BEL,2019.0,Belgium,BEL,8.61,1.0,9.31,7.62,Stekene,51.2099,4.03651,BE,16989
8501,BE,BEL,2019.0,Belgium,BEL,8.61,1.0,9.31,7.62,Stabroek,51.33189,4.37127,BE,17294
8502,BE,BEL,2019.0,Belgium,BEL,8.61,1.0,9.31,7.62,Soumagne,50.61385,5.74679,BE,15237
8503,BE,BEL,2019.0,Belgium,BEL,8.61,1.0,9.31,7.62,Soignies,50.57904,4.07129,BE,24869
8504,BE,BEL,2019.0,Belgium,BEL,8.61,1.0,9.31,7.62,Sint-Truiden,50.81679,5.18647,BE,37859
8505,BE,BEL,2019.0,Belgium,BEL,8.61,1.0,9.31,7.62,Sint-Pieters-Leeuw,50.77926,4.24355,BE,30446
8506,BE,BEL,2019.0,Belgium,BEL,8.61,1.0,9.31,7.62,Sint-Niklaas,51.16509,4.1437,BE,69010
8507,BE,BEL,2019.0,Belgium,BEL,8.61,1.0,9.31,7.62,Sint-Kruis,51.21399,3.24949,BE,16000
8508,BE,BEL,2019.0,Belgium,BEL,8.61,1.0,9.31,7.62,Sint-Katelijne-Waver,51.06691,4.53469,BE,19487
8509,BE,BEL,2019.0,Belgium,BEL,8.61,1.0,9.31,7.62,Sint-Gillis-Waas,51.21914,4.12374,BE,17658
8510,BE,BEL,2019.0,Belgium,BEL,8.61,1.0,9.31,7.62,Sint-Genesius-Rode,50.74645,4.35754,BE,17990
8511,BE,BEL,2019.0,Belgium,BEL,8.61,1.0,9.31,7.62,Seraing,50.58362,5.50115,BE,60737
8512,BE,BEL,2019.0,Belgium,BEL,8.61,1.0,9.31,7.62,Schoten,51.25251,4.50268,BE,33622
8513,BE,BEL,2019.0,Belgium,BEL,8.61,1.0,9.31,7.62,Schilde,51.24107,4.58336,BE,20373
8514,BE,BEL,2019.0,Belgium,BEL,8.61,1.0,9.31,7.62,Saint-Nicolas,50.62837,5.53243,BE,22586
8515,BE,BEL,2019.0,Belgium,BEL,8.61,1.0,9.31,7.62,Saint-Ghislain,50.44816,3.81886,BE,22500
8516,BE,BEL,2019.0,Belgium,BEL,8.61,1.0,9.31,7.62,Rotselaar,50.95302,4.71665,BE,15007
8517,BE,BEL,2019.0,Belgium,BEL,8.61,1.0,9.31,7.62,Ronse,50.74574,3.6005,BE,24204
8518,BE,BEL,2019.0,Belgium,BEL,8.61,1.0,9.31,7.62,Roeselare,50.94653,3.12269,BE,56016
8519,BE,BEL,2019.0,Belgium,BEL,8.61,1.0,9.31,7.62,Rixensart,50.71229,4.52529,BE,21616
8520,BE,BEL,2019.0,Belgium,BEL,8.61,1.0,9.31,7.62,Riemst,50.80995,5.60131,BE,15809
8521,BE,BEL,2019.0,Belgium,BEL,8.61,1.0,9.31,7.62,Ranst,51.18983,4.56533,BE,17405
8522,BE,BEL,2019.0,Belgium,BEL,8.61,1.0,9.31,7.62,Quaregnon,50.44067,3.8653,BE,18491
8523,BE,BEL,2019.0,Belgium,BEL,8.61,1.0,9.31,7.62,Puurs,51.07409,4.28844,BE,15944
8524,BE,BEL,2019.0,Belgium,BEL,8.61,1.0,9.31,7.62,Putte,51.05337,4.63263,BE,15276
8525,BE,BEL,2019.0,Belgium,BEL,8.61,1.0,9.31,7.62,Poperinge,50.85386,2.72659,BE,19537
8526,BE,BEL,2019.0,Belgium,BEL,8.61,1.0,9.31,7.62,Pont-a-Celles,50.50518,4.36887,BE,15909
8527,BE,BEL,2019.0,Belgium,BEL,8.61,1.0,9.31,7.62,Peruwelz,50.50819,3.59373,BE,16647
8528,BE,BEL,2019.0,Belgium,BEL,8.61,1.0,9.31,7.62,Peer,51.1303,5.45952,BE,15551
8529,BE,BEL,2019.0,Belgium,BEL,8.61,1.0,9.31,7.62,Overijse,50.77436,4.53461,BE,23486
8530,BE,BEL,2019.0,Belgium,BEL,8.61,1.0,9.31,7.62,Oupeye,50.71184,5.6468,BE,23594
8531,BE,BEL,2019.0,Belgium,BEL,8.61,1.0,9.31,7.62,Oudenaarde,50.85168,3.60891,BE,27935
8532,BE,BEL,2019.0,Belgium,BEL,8.61,1.0,9.31,7.62,Oostkamp,51.15432,3.23128,BE,21489
8533,BE,BEL,2019.0,Belgium,BEL,8.61,1.0,9.31,7.62,Ostend,51.21551,2.927,BE,69011
8534,BE,BEL,2019.0,Belgium,BEL,8.61,1.0,9.31,7.62,Nivelles,50.59833,4.32848,BE,24149
8535,BE,BEL,2019.0,Belgium,BEL,8.61,1.0,9.31,7.62,Ninove,50.82776,4.02657,BE,34795
8536,BE,BEL,2019.0,Belgium,BEL,8.61,1.0,9.31,7.62,Nijlen,51.16096,4.67008,BE,20792
8537,BE,BEL,2019.0,Belgium,BEL,8.61,1.0,9.31,7.62,Neerpelt,51.22807,5.4427,BE,16122
8538,BE,BEL,2019.0,Belgium,BEL,8.61,1.0,9.31,7.62,Namur,50.4669,4.86746,BE,106284
8539,BE,BEL,2019.0,Belgium,BEL,8.61,1.0,9.31,7.62,Mouscron,50.74497,3.20639,BE,52069
8540,BE,BEL,2019.0,Belgium,BEL,8.61,1.0,9.31,7.62,Mortsel,51.16697,4.45127,BE,24525
8541,BE,BEL,2019.0,Belgium,BEL,8.61,1.0,9.31,7.62,Morlanwelz-Mariemont,50.45502,4.24519,BE,18233
8542,BE,BEL,2019.0,Belgium,BEL,8.61,1.0,9.31,7.62,Mons,50.45413,3.95229,BE,91277
8543,BE,BEL,2019.0,Belgium,BEL,8.61,1.0,9.31,7.62,Mol,51.19188,5.11662,BE,32659
8544,BE,BEL,2019.0,Belgium,BEL,8.61,1.0,9.31,7.62,Middelkerke,51.18532,2.82077,BE,17789
8545,BE,BEL,2019.0,Belgium,BEL,8.61,1.0,9.31,7.62,Merelbeke,50.99447,3.74621,BE,22047
8546,BE,BEL,2019.0,Belgium,BEL,8.61,1.0,9.31,7.62,Menen,50.79722,3.12245,BE,31916
8547,BE,BEL,2019.0,Belgium,BEL,8.61,1.0,9.31,7.62,Meise,50.93934,4.32655,BE,18497
8548,BE,BEL,2019.0,Belgium,BEL,8.61,1.0,9.31,7.62,Mechelen,51.02574,4.47762,BE,77530
8549,BE,BEL,2019.0,Belgium,BEL,8.61,1.0,9.31,7.62,Marche-en-Famenne,50.22678,5.34416,BE,16856
8550,BE,BEL,2019.0,Belgium,BEL,8.61,1.0,9.31,7.62,Manage,50.50312,4.23589,BE,22196
8551,BE,BEL,2019.0,Belgium,BEL,8.61,1.0,9.31,7.62,Maldegem,51.20737,3.44511,BE,22092
8552,BE,BEL,2019.0,Belgium,BEL,8.61,1.0,9.31,7.62,Maasmechelen,50.96545,5.69452,BE,36251
8553,BE,BEL,2019.0,Belgium,BEL,8.61,1.0,9.31,7.62,Maaseik,51.09802,5.78379,BE,23684
8554,BE,BEL,2019.0,Belgium,BEL,8.61,1.0,9.31,7.62,Louvain-la-Neuve,50.66829,4.61443,BE,29521
8555,BE,BEL,2019.0,Belgium,BEL,8.61,1.0,9.31,7.62,Londerzeel,51.00468,4.30304,BE,17274
8556,BE,BEL,2019.0,Belgium,BEL,8.61,1.0,9.31,7.62,Lommel,51.23074,5.31349,BE,31993
8557,BE,BEL,2019.0,Belgium,BEL,8.61,1.0,9.31,7.62,Lokeren,51.10364,3.99339,BE,37567
8558,BE,BEL,2019.0,Belgium,BEL,8.61,1.0,9.31,7.62,Lochristi,51.09644,3.83194,BE,19696
8559,BE,BEL,2019.0,Belgium,BEL,8.61,1.0,9.31,7.62,Lille,51.24197,4.82313,BE,15466
8560,BE,BEL,2019.0,Belgium,BEL,8.61,1.0,9.31,7.62,Lier,51.13128,4.57041,BE,33272
8561,BE,BEL,2019.0,Belgium,BEL,8.61,1.0,9.31,7.62,Liege,50.63373,5.56749,BE,182597
8562,BE,BEL,2019.0,Belgium,BEL,8.61,1.0,9.31,7.62,Leuven,50.87959,4.70093,BE,92892
8563,BE,BEL,2019.0,Belgium,BEL,8.61,1.0,9.31,7.62,Lessines,50.71104,3.83579,BE,17687
8564,BE,BEL,2019.0,Belgium,BEL,8.61,1.0,9.31,7.62,Lede,50.96626,3.98594,BE,16813
8565,BE,BEL,2019.0,Belgium,BEL,8.61,1.0,9.31,7.62,Lebbeke,51.00464,4.13457,BE,17372
8566,BE,BEL,2019.0,Belgium,BEL,8.61,1.0,9.31,7.62,Lanaken,50.89318,5.6468,BE,24771
8567,BE,BEL,2019.0,Belgium,BEL,8.61,1.0,9.31,7.62,La Louviere,50.48657,4.18785,BE,76668
8568,BE,BEL,2019.0,Belgium,BEL,8.61,1.0,9.31,7.62,Kortrijk,50.82803,3.26487,BE,73879
8569,BE,BEL,2019.0,Belgium,BEL,8.61,1.0,9.31,7.62,Kortenberg,50.88982,4.54353,BE,17774
8570,BE,BEL,2019.0,Belgium,BEL,8.61,1.0,9.31,7.62,Kontich,51.13213,4.44706,BE,20290
8571,BE,BEL,2019.0,Belgium,BEL,8.61,1.0,9.31,7.62,Koksijde,51.11642,2.63772,BE,21027
8572,BE,BEL,2019.0,Belgium,BEL,8.61,1.0,9.31,7.62,Knokke-Heist,51.35,3.26667,BE,33781
8573,BE,BEL,2019.0,Belgium,BEL,8.61,1.0,9.31,7.62,Kasterlee,51.24118,4.96651,BE,17765
8574,BE,BEL,2019.0,Belgium,BEL,8.61,1.0,9.31,7.62,Kapellen,51.31377,4.43539,BE,26410
8575,BE,BEL,2019.0,Belgium,BEL,8.61,1.0,9.31,7.62,Kalmthout,51.38442,4.47556,BE,17485
8576,BE,BEL,2019.0,Belgium,BEL,8.61,1.0,9.31,7.62,Izegem,50.91396,3.21378,BE,26382
8577,BE,BEL,2019.0,Belgium,BEL,8.61,1.0,9.31,7.62,Ieper,50.85114,2.88569,BE,35089
8578,BE,BEL,2019.0,Belgium,BEL,8.61,1.0,9.31,7.62,Huy,50.51894,5.23284,BE,19973
8579,BE,BEL,2019.0,Belgium,BEL,8.61,1.0,9.31,7.62,Houthalen,51.03427,5.37429,BE,30050
8580,BE,BEL,2019.0,Belgium,BEL,8.61,1.0,9.31,7.62,Hoogstraten,51.40029,4.76034,BE,18524
8581,BE,BEL,2019.0,Belgium,BEL,8.61,1.0,9.31,7.62,Hoboken,51.17611,4.34844,BE,34443
8582,BE,BEL,2019.0,Belgium,BEL,8.61,1.0,9.31,7.62,Heusden,51.03664,5.28013,BE,31017
8583,BE,BEL,2019.0,Belgium,BEL,8.61,1.0,9.31,7.62,Herzele,50.88681,3.89014,BE,16523
8584,BE,BEL,2019.0,Belgium,BEL,8.61,1.0,9.31,7.62,Herve,50.64083,5.79353,BE,16544
8585,BE,BEL,2019.0,Belgium,BEL,8.61,1.0,9.31,7.62,Herstal,50.66415,5.62346,BE,36503
8586,BE,BEL,2019.0,Belgium,BEL,8.61,1.0,9.31,7.62,Herentals,51.17655,4.83248,BE,25912
8587,BE,BEL,2019.0,Belgium,BEL,8.61,1.0,9.31,7.62,Herent,50.90861,4.67056,BE,19218
8588,BE,BEL,2019.0,Belgium,BEL,8.61,1.0,9.31,7.62,Helchteren,51.05591,5.38244,BE,30050
8589,BE,BEL,2019.0,Belgium,BEL,8.61,1.0,9.31,7.62,Heist-op-den-Berg,51.07537,4.72827,BE,37873
8590,BE,BEL,2019.0,Belgium,BEL,8.61,1.0,9.31,7.62,Hasselt,50.93106,5.33781,BE,69222
8591,BE,BEL,2019.0,Belgium,BEL,8.61,1.0,9.31,7.62,Harelbeke,50.85343,3.30935,BE,25978
8592,BE,BEL,2019.0,Belgium,BEL,8.61,1.0,9.31,7.62,Hamme,51.09822,4.13705,BE,22891
8593,BE,BEL,2019.0,Belgium,BEL,8.61,1.0,9.31,7.62,Halle,50.73385,4.23454,BE,34479
8594,BE,BEL,2019.0,Belgium,BEL,8.61,1.0,9.31,7.62,Haaltert,50.90634,4.00093,BE,17129
8595,BE,BEL,2019.0,Belgium,BEL,8.61,1.0,9.31,7.62,Grimbergen,50.93409,4.37213,BE,33561
8596,BE,BEL,2019.0,Belgium,BEL,8.61,1.0,9.31,7.62,Geraardsbergen,50.77343,3.88223,BE,30807
8597,BE,BEL,2019.0,Belgium,BEL,8.61,1.0,9.31,7.62,Gent,51.05,3.71667,BE,231493
8598,BE,BEL,2019.0,Belgium,BEL,8.61,1.0,9.31,7.62,Genk,50.965,5.50082,BE,63666
8599,BE,BEL,2019.0,Belgium,BEL,8.61,1.0,9.31,7.62,Gembloux,50.56149,4.69889,BE,21676
8600,BE,BEL,2019.0,Belgium,BEL,8.61,1.0,9.31,7.62,Geel,51.16557,4.98917,BE,34697
8601,BE,BEL,2019.0,Belgium,BEL,8.61,1.0,9.31,7.62,Frameries,50.40578,3.89603,BE,20598
8602,BE,BEL,2019.0,Belgium,BEL,8.61,1.0,9.31,7.62,Fleurus,50.48351,4.55006,BE,22080
8603,BE,BEL,2019.0,Belgium,BEL,8.61,1.0,9.31,7.62,Fleron,50.61516,5.68062,BE,15994
8604,BE,BEL,2019.0,Belgium,BEL,8.61,1.0,9.31,7.62,Flemalle-Haute,50.59994,5.44471,BE,25144
8605,BE,BEL,2019.0,Belgium,BEL,8.61,1.0,9.31,7.62,Evergem,51.10529,3.704,BE,31615
8606,BE,BEL,2019.0,Belgium,BEL,8.61,1.0,9.31,7.62,Eupen,50.6279,6.03647,BE,18029
8607,BE,BEL,2019.0,Belgium,BEL,8.61,1.0,9.31,7.62,Essen,51.46791,4.46901,BE,16754
8608,BE,BEL,2019.0,Belgium,BEL,8.61,1.0,9.31,7.62,Eeklo,51.18703,3.55654,BE,19116
8609,BE,BEL,2019.0,Belgium,BEL,8.61,1.0,9.31,7.62,Edegem,51.15662,4.44504,BE,21839
8610,BE,BEL,2019.0,Belgium,BEL,8.61,1.0,9.31,7.62,Duffel,51.09554,4.50903,BE,16011
8611,BE,BEL,2019.0,Belgium,BEL,8.61,1.0,9.31,7.62,Dour,50.39583,3.77792,BE,16861
8612,BE,BEL,2019.0,Belgium,BEL,8.61,1.0,9.31,7.62,Dilbeek,50.84799,4.25972,BE,39482
8613,BE,BEL,2019.0,Belgium,BEL,8.61,1.0,9.31,7.62,Diksmuide,51.03248,2.86384,BE,15515
8614,BE,BEL,2019.0,Belgium,BEL,8.61,1.0,9.31,7.62,Diest,50.98923,5.05062,BE,22516
8615,BE,BEL,2019.0,Belgium,BEL,8.61,1.0,9.31,7.62,Diepenbeek,50.90769,5.41875,BE,17699
8616,BE,BEL,2019.0,Belgium,BEL,8.61,1.0,9.31,7.62,Destelbergen,51.05952,3.79899,BE,16853
8617,BE,BEL,2019.0,Belgium,BEL,8.61,1.0,9.31,7.62,Dendermonde,51.02869,4.10106,BE,43055
8618,BE,BEL,2019.0,Belgium,BEL,8.61,1.0,9.31,7.62,Denderleeuw,50.88506,4.07601,BE,16969
8619,BE,BEL,2019.0,Belgium,BEL,8.61,1.0,9.31,7.62,Deinze,50.98175,3.53096,BE,29815
8620,BE,BEL,2019.0,Belgium,BEL,8.61,1.0,9.31,7.62,Courcelles,50.46379,4.3747,BE,29473
8621,BE,BEL,2019.0,Belgium,BEL,8.61,1.0,9.31,7.62,Colfontaine,50.4141,3.85569,BE,19964
8622,BE,BEL,2019.0,Belgium,BEL,8.61,1.0,9.31,7.62,Chaudfontaine,50.5828,5.6341,BE,20960
8623,BE,BEL,2019.0,Belgium,BEL,8.61,1.0,9.31,7.62,Chatelet,50.40338,4.52826,BE,35238
8624,BE,BEL,2019.0,Belgium,BEL,8.61,1.0,9.31,7.62,Chasse Royale,50.42842,3.95001,BE,0
8625,BE,BEL,2019.0,Belgium,BEL,8.61,1.0,9.31,7.62,Charleroi,50.41136,4.44448,BE,200132
8626,BE,BEL,2019.0,Belgium,BEL,8.61,1.0,9.31,7.62,Brussels,50.85045,4.34878,BE,1019022
8627,BE,BEL,2019.0,Belgium,BEL,8.61,1.0,9.31,7.62,Brugge,51.20892,3.22424,BE,116709
8628,BE,BEL,2019.0,Belgium,BEL,8.61,1.0,9.31,7.62,Brecht,51.35024,4.63829,BE,25908
8629,BE,BEL,2019.0,Belgium,BEL,8.61,1.0,9.31,7.62,Brasschaat,51.2912,4.49182,BE,37040
8630,BE,BEL,2019.0,Belgium,BEL,8.61,1.0,9.31,7.62,Braine-le-Comte,50.60979,4.14658,BE,20133
8631,BE,BEL,2019.0,Belgium,BEL,8.61,1.0,9.31,7.62,Braine-l'Alleud,50.68363,4.36784,BE,37512
8632,BE,BEL,2019.0,Belgium,BEL,8.61,1.0,9.31,7.62,Boussu,50.43417,3.7944,BE,20058
8633,BE,BEL,2019.0,Belgium,BEL,8.61,1.0,9.31,7.62,Bornem,51.09716,4.24364,BE,19997
8634,BE,BEL,2019.0,Belgium,BEL,8.61,1.0,9.31,7.62,Boom,51.09242,4.3717,BE,15810
8635,BE,BEL,2019.0,Belgium,BEL,8.61,1.0,9.31,7.62,Blankenberge,51.31306,3.13227,BE,18230
8636,BE,BEL,2019.0,Belgium,BEL,8.61,1.0,9.31,7.62,Binche,50.41155,4.16469,BE,32030
8637,BE,BEL,2019.0,Belgium,BEL,8.61,1.0,9.31,7.62,Bilzen,50.87325,5.5184,BE,29622
8638,BE,BEL,2019.0,Belgium,BEL,8.61,1.0,9.31,7.62,Beveren,51.21187,4.25633,BE,45179
8639,BE,BEL,2019.0,Belgium,BEL,8.61,1.0,9.31,7.62,Beringen,51.04954,5.22606,BE,40930
8640,BE,BEL,2019.0,Belgium,BEL,8.61,1.0,9.31,7.62,Beersel,50.76589,4.3002,BE,23228
8641,BE,BEL,2019.0,Belgium,BEL,8.61,1.0,9.31,7.62,Beerse,51.31927,4.85304,BE,16208
8642,BE,BEL,2019.0,Belgium,BEL,8.61,1.0,9.31,7.62,Balen,51.16837,5.17027,BE,19978
8643,BE,BEL,2019.0,Belgium,BEL,8.61,1.0,9.31,7.62,Ath,50.62937,3.77801,BE,26681
8644,BE,BEL,2019.0,Belgium,BEL,8.61,1.0,9.31,7.62,Asse,50.91011,4.19836,BE,28985
8645,BE,BEL,2019.0,Belgium,BEL,8.61,1.0,9.31,7.62,Arlon,49.68333,5.81667,BE,26179
8646,BE,BEL,2019.0,Belgium,BEL,8.61,1.0,9.31,7.62,Antwerpen,51.21989,4.40346,BE,459805
8647,BE,BEL,2019.0,Belgium,BEL,8.61,1.0,9.31,7.62,Ans,50.6623,5.52029,BE,27297
8648,BE,BEL,2019.0,Belgium,BEL,8.61,1.0,9.31,7.62,Andenne,50.48941,5.09513,BE,24055
8649,BE,BEL,2019.0,Belgium,BEL,8.61,1.0,9.31,7.62,Aarschot,50.98715,4.83695,BE,27656
8650,BE,BEL,2019.0,Belgium,BEL,8.61,1.0,9.31,7.62,Aalter,51.09017,3.44693,BE,18802
8651,BE,BEL,2019.0,Belgium,BEL,8.61,1.0,9.31,7.62,Aalst,50.93604,4.0355,BE,77534
10676,BF,BFA,2019.0,Burkina Faso,BFA,6.85,3.0,7.44,6.04,Zorgo,12.24922,-0.61527,BF,23892
10677,BF,BFA,2019.0,Burkina Faso,BFA,6.85,3.0,7.44,6.04,Yako,12.9591,-2.26075,BF,22904
10678,BF,BFA,2019.0,Burkina Faso,BFA,6.85,3.0,7.44,6.04,Tougan,13.0725,-3.0694,BF,17590
10679,BF,BFA,2019.0,Burkina Faso,BFA,6.85,3.0,7.44,6.04,Titao,13.76667,-2.06667,BF,19131
10680,BF,BFA,2019.0,Burkina Faso,BFA,6.85,3.0,7.44,6.04,Tenkodogo,11.78,-0.36972,BF,37658
10681,BF,BFA,2019.0,Burkina Faso,BFA,6.85,3.0,7.44,6.04,Reo,12.31963,-2.47094,BF,37535
10682,BF,BFA,2019.0,Burkina Faso,BFA,6.85,3.0,7.44,6.04,Po,11.16972,-1.145,BF,17924
10683,BF,BFA,2019.0,Burkina Faso,BFA,6.85,3.0,7.44,6.04,Ouahigouya,13.58278,-2.42158,BF,61096
10684,BF,BFA,2019.0,Burkina Faso,BFA,6.85,3.0,7.44,6.04,Ouagadougou,12.36566,-1.53388,BF,1086505
10685,BF,BFA,2019.0,Burkina Faso,BFA,6.85,3.0,7.44,6.04,Nouna,12.72939,-3.86305,BF,29048
10686,BF,BFA,2019.0,Burkina Faso,BFA,6.85,3.0,7.44,6.04,Manga,11.66361,-1.07306,BF,15173
10687,BF,BFA,2019.0,Burkina Faso,BFA,6.85,3.0,7.44,6.04,Leo,11.10033,-2.10654,BF,26884
10688,BF,BFA,2019.0,Burkina Faso,BFA,6.85,3.0,7.44,6.04,Koupela,12.17864,-0.35103,BF,32052
10689,BF,BFA,2019.0,Burkina Faso,BFA,6.85,3.0,7.44,6.04,Koudougou,12.25263,-2.36272,BF,87347
10690,BF,BFA,2019.0,Burkina Faso,BFA,6.85,3.0,7.44,6.04,Kongoussi,13.32583,-1.53472,BF,26338
10691,BF,BFA,2019.0,Burkina Faso,BFA,6.85,3.0,7.44,6.04,Kombissiri,12.06095,-1.33355,BF,30137
10692,BF,BFA,2019.0,Burkina Faso,BFA,6.85,3.0,7.44,6.04,Kokologo,12.18972,-1.88556,BF,25958
10693,BF,BFA,2019.0,Burkina Faso,BFA,6.85,3.0,7.44,6.04,Kaya,13.09167,-1.08444,BF,39229
10694,BF,BFA,2019.0,Burkina Faso,BFA,6.85,3.0,7.44,6.04,Hounde,11.5,-3.51667,BF,36593
10695,BF,BFA,2019.0,Burkina Faso,BFA,6.85,3.0,7.44,6.04,Gourcy,13.20776,-2.35893,BF,16765
10696,BF,BFA,2019.0,Burkina Faso,BFA,6.85,3.0,7.44,6.04,Garango,11.8,-0.55056,BF,29076
10697,BF,BFA,2019.0,Burkina Faso,BFA,6.85,3.0,7.44,6.04,Fada N'gourma,12.06157,0.35843,BF,33910
10698,BF,BFA,2019.0,Burkina Faso,BFA,6.85,3.0,7.44,6.04,Dori,14.0354,-0.0345,BF,37806
10699,BF,BFA,2019.0,Burkina Faso,BFA,6.85,3.0,7.44,6.04,Djibo,14.0994,-1.62554,BF,22223
10700,BF,BFA,2019.0,Burkina Faso,BFA,6.85,3.0,7.44,6.04,Diapaga,12.07305,1.78838,BF,26013
10701,BF,BFA,2019.0,Burkina Faso,BFA,6.85,3.0,7.44,6.04,Dedougou,12.46338,-3.46075,BF,45341
10702,BF,BFA,2019.0,Burkina Faso,BFA,6.85,3.0,7.44,6.04,Bousse,12.6576,-1.89288,BF,15868
10703,BF,BFA,2019.0,Burkina Faso,BFA,6.85,3.0,7.44,6.04,Boulsa,12.66664,-0.57469,BF,17489
10704,BF,BFA,2019.0,Burkina Faso,BFA,6.85,3.0,7.44,6.04,Bobo-Dioulasso,11.17715,-4.2979,BF,360106
10705,BF,BFA,2019.0,Burkina Faso,BFA,6.85,3.0,7.44,6.04,Banfora,10.63333,-4.76667,BF,60288
10706,BF,BFA,2019.0,Burkina Faso,BFA,6.85,3.0,7.44,6.04,Gaoua,10.29917,-3.25083,BF,25104
10707,BF,BFA,2019.0,Burkina Faso,BFA,6.85,3.0,7.44,6.04,Orodara,10.94917,-4.93417,BF,18632
11060,BG,BGR,2019.0,Bulgaria,BGR,8.08,2.0,8.3,7.76,Yambol,42.48333,26.5,BG,80116
11061,BG,BGR,2019.0,Bulgaria,BGR,8.08,2.0,8.3,7.76,Vratsa,43.21,23.5625,BG,64941
11062,BG,BGR,2019.0,Bulgaria,BGR,8.08,2.0,8.3,7.76,Vidin,43.99,22.8725,BG,54409
11063,BG,BGR,2019.0,Bulgaria,BGR,8.08,2.0,8.3,7.76,Velingrad,42.02754,23.99155,BG,24036
11064,BG,BGR,2019.0,Bulgaria,BGR,8.08,2.0,8.3,7.76,Veliko Turnovo,43.08124,25.62904,BG,66217
11065,BG,BGR,2019.0,Bulgaria,BGR,8.08,2.0,8.3,7.76,Varna,43.21667,27.91667,BG,312770
11066,BG,BGR,2019.0,Bulgaria,BGR,8.08,2.0,8.3,7.76,Targovishte,43.2512,26.57215,BG,37774
11067,BG,BGR,2019.0,Bulgaria,BGR,8.08,2.0,8.3,7.76,Troyan,42.89427,24.71589,BG,21162
11068,BG,BGR,2019.0,Bulgaria,BGR,8.08,2.0,8.3,7.76,Dobrich,43.56667,27.83333,BG,94831
11069,BG,BGR,2019.0,Bulgaria,BGR,8.08,2.0,8.3,7.76,Svishtov,43.61959,25.35044,BG,32256
11070,BG,BGR,2019.0,Bulgaria,BGR,8.08,2.0,8.3,7.76,Svilengrad,41.76667,26.2,BG,19279
11071,BG,BGR,2019.0,Bulgaria,BGR,8.08,2.0,8.3,7.76,Stara Zagora,42.43278,25.64194,BG,143431
11072,BG,BGR,2019.0,Bulgaria,BGR,8.08,2.0,8.3,7.76,Dupnitsa,42.26667,23.11667,BG,34764
11073,BG,BGR,2019.0,Bulgaria,BGR,8.08,2.0,8.3,7.76,Sofia,42.69751,23.32415,BG,1152556
11074,BG,BGR,2019.0,Bulgaria,BGR,8.08,2.0,8.3,7.76,Smolyan,41.58528,24.69194,BG,32069
11075,BG,BGR,2019.0,Bulgaria,BGR,8.08,2.0,8.3,7.76,Sliven,42.68583,26.32917,BG,96368
11076,BG,BGR,2019.0,Bulgaria,BGR,8.08,2.0,8.3,7.76,Silistra,44.11667,27.26667,BG,39715
11077,BG,BGR,2019.0,Bulgaria,BGR,8.08,2.0,8.3,7.76,Shumen,43.27064,26.92286,BG,87283
11078,BG,BGR,2019.0,Bulgaria,BGR,8.08,2.0,8.3,7.76,Sevlievo,43.02583,25.11361,BG,24582
11079,BG,BGR,2019.0,Bulgaria,BGR,8.08,2.0,8.3,7.76,Sandanski,41.56667,23.28333,BG,26459
11080,BG,BGR,2019.0,Bulgaria,BGR,8.08,2.0,8.3,7.76,Samokov,42.337,23.5528,BG,26765
11081,BG,BGR,2019.0,Bulgaria,BGR,8.08,2.0,8.3,7.76,Ruse,43.85639,25.97083,BG,156238
11082,BG,BGR,2019.0,Bulgaria,BGR,8.08,2.0,8.3,7.76,Razgrad,43.53333,26.51667,BG,38285
11083,BG,BGR,2019.0,Bulgaria,BGR,8.08,2.0,8.3,7.76,Rakovski,42.3,24.96667,BG,15782
11084,BG,BGR,2019.0,Bulgaria,BGR,8.08,2.0,8.3,7.76,Popovo,43.35,26.23333,BG,16571
11085,BG,BGR,2019.0,Bulgaria,BGR,8.08,2.0,8.3,7.76,Plovdiv,42.15,24.75,BG,340494
11086,BG,BGR,2019.0,Bulgaria,BGR,8.08,2.0,8.3,7.76,Pleven,43.41667,24.61667,BG,118675
11087,BG,BGR,2019.0,Bulgaria,BGR,8.08,2.0,8.3,7.76,Petrich,41.39846,23.20702,BG,30308
11088,BG,BGR,2019.0,Bulgaria,BGR,8.08,2.0,8.3,7.76,Peshtera,42.03333,24.3,BG,18676
11089,BG,BGR,2019.0,Bulgaria,BGR,8.08,2.0,8.3,7.76,Pernik,42.6,23.03333,BG,82467
11090,BG,BGR,2019.0,Bulgaria,BGR,8.08,2.0,8.3,7.76,Pazardzhik,42.2,24.33333,BG,75977
11091,BG,BGR,2019.0,Bulgaria,BGR,8.08,2.0,8.3,7.76,Panagyurishte,42.49518,24.19021,BG,19389
11092,BG,BGR,2019.0,Bulgaria,BGR,8.08,2.0,8.3,7.76,Nova Zagora,42.48333,26.01667,BG,24340
11093,BG,BGR,2019.0,Bulgaria,BGR,8.08,2.0,8.3,7.76,Montana,43.4125,23.225,BG,47445
11094,BG,BGR,2019.0,Bulgaria,BGR,8.08,2.0,8.3,7.76,Lovech,43.13333,24.71667,BG,42211
11095,BG,BGR,2019.0,Bulgaria,BGR,8.08,2.0,8.3,7.76,Lom,43.81389,23.23611,BG,26594
11096,BG,BGR,2019.0,Bulgaria,BGR,8.08,2.0,8.3,7.76,Kyustendil,42.28389,22.69111,BG,48286
11097,BG,BGR,2019.0,Bulgaria,BGR,8.08,2.0,8.3,7.76,Kardzhali,41.65,25.36667,BG,51000
11098,BG,BGR,2019.0,Bulgaria,BGR,8.08,2.0,8.3,7.76,Haskovo,41.93415,25.55557,BG,79699
11099,BG,BGR,2019.0,Bulgaria,BGR,8.08,2.0,8.3,7.76,Harmanli,41.93333,25.9,BG,18931
11100,BG,BGR,2019.0,Bulgaria,BGR,8.08,2.0,8.3,7.76,Kazanlak,42.61667,25.4,BG,55196
11101,BG,BGR,2019.0,Bulgaria,BGR,8.08,2.0,8.3,7.76,Karnobat,42.65,26.98333,BG,19709
11102,BG,BGR,2019.0,Bulgaria,BGR,8.08,2.0,8.3,7.76,Karlovo,42.63333,24.8,BG,19958
11103,BG,BGR,2019.0,Bulgaria,BGR,8.08,2.0,8.3,7.76,Gotse Delchev,41.56667,23.73333,BG,20471
11104,BG,BGR,2019.0,Bulgaria,BGR,8.08,2.0,8.3,7.76,Gorna Oryahovitsa,43.12778,25.70167,BG,38553
11105,BG,BGR,2019.0,Bulgaria,BGR,8.08,2.0,8.3,7.76,Gabrovo,42.87472,25.33417,BG,66175
11106,BG,BGR,2019.0,Bulgaria,BGR,8.08,2.0,8.3,7.76,Dimitrovgrad,42.05,25.6,BG,43288
11107,BG,BGR,2019.0,Bulgaria,BGR,8.08,2.0,8.3,7.76,Chirpan,42.2,25.33333,BG,17243
11108,BG,BGR,2019.0,Bulgaria,BGR,8.08,2.0,8.3,7.76,Cherven Bryag,43.26667,24.1,BG,21688
11109,BG,BGR,2019.0,Bulgaria,BGR,8.08,2.0,8.3,7.76,Burgas,42.50606,27.46781,BG,195966
11110,BG,BGR,2019.0,Bulgaria,BGR,8.08,2.0,8.3,7.76,Botevgrad,42.9,23.78333,BG,20909
11111,BG,BGR,2019.0,Bulgaria,BGR,8.08,2.0,8.3,7.76,Blagoevgrad,42.01667,23.1,BG,71306
11112,BG,BGR,2019.0,Bulgaria,BGR,8.08,2.0,8.3,7.76,Berkovitsa,43.23611,23.12583,BG,15027
11113,BG,BGR,2019.0,Bulgaria,BGR,8.08,2.0,8.3,7.76,Aytos,42.7,27.25,BG,20986
11114,BG,BGR,2019.0,Bulgaria,BGR,8.08,2.0,8.3,7.76,Asenovgrad,42.01667,24.86667,BG,52170
11720,BH,BHR,2019.0,Bahrain,BHR,5.73,4.0,4.59,7.33,Sitrah,26.15472,50.62056,BH,37657
11721,BH,BHR,2019.0,Bahrain,BHR,5.73,4.0,4.59,7.33,Madinat `Isa,26.17361,50.54778,BH,38090
11722,BH,BHR,2019.0,Bahrain,BHR,5.73,4.0,4.59,7.33,Jidd Hafs,26.21861,50.54778,BH,31735
11723,BH,BHR,2019.0,Bahrain,BHR,5.73,4.0,4.59,7.33,Madinat Hamad,26.11528,50.50694,BH,52718
11724,BH,BHR,2019.0,Bahrain,BHR,5.73,4.0,4.59,7.33,Dar Kulayb,26.06861,50.50389,BH,65466
11725,BH,BHR,2019.0,Bahrain,BHR,5.73,4.0,4.59,7.33,Al Muharraq,26.25722,50.61194,BH,97458
11726,BH,BHR,2019.0,Bahrain,BHR,5.73,4.0,4.59,7.33,Manama,26.22787,50.58565,BH,147074
11727,BH,BHR,2019.0,Bahrain,BHR,5.73,4.0,4.59,7.33,Ar Rifa',26.13,50.555,BH,79550
11816,BI,BDI,2019.0,Burundi,BDI,5.02,4.0,4.57,5.65,Makamba,-4.1348,29.804,BI,19642
11817,BI,BDI,2019.0,Burundi,BDI,5.02,4.0,4.57,5.65,Bururi,-3.94877,29.62438,BI,19740
11818,BI,BDI,2019.0,Burundi,BDI,5.02,4.0,4.57,5.65,Bujumbura,-3.3822,29.3644,BI,331700
11819,BI,BDI,2019.0,Burundi,BDI,5.02,4.0,4.57,5.65,Muramvya,-3.2682,29.6079,BI,18041
11820,BI,BDI,2019.0,Burundi,BDI,5.02,4.0,4.57,5.65,Gitega,-3.4264,29.9308,BI,23167
11821,BI,BDI,2019.0,Burundi,BDI,5.02,4.0,4.57,5.65,Ruyigi,-3.47639,30.24861,BI,38458
11822,BI,BDI,2019.0,Burundi,BDI,5.02,4.0,4.57,5.65,Ngozi,-2.9075,29.8306,BI,21506
11823,BI,BDI,2019.0,Burundi,BDI,5.02,4.0,4.57,5.65,Kayanza,-2.9221,29.6293,BI,19443
11824,BI,BDI,2019.0,Burundi,BDI,5.02,4.0,4.57,5.65,Muyinga,-2.8451,30.3414,BI,71076
11825,BI,BDI,2019.0,Burundi,BDI,5.02,4.0,4.57,5.65,Rutana,-3.9279,29.992,BI,20893
11936,BJ,BEN,2019.0,Benin,BEN,7.32,2.0,7.83,6.62,Tchaourou,8.88649,2.59753,BJ,20971
11937,BJ,BEN,2019.0,Benin,BEN,7.32,2.0,7.83,6.62,Tanguieta,10.62118,1.26651,BJ,19833
11938,BJ,BEN,2019.0,Benin,BEN,7.32,2.0,7.83,6.62,Save,8.03424,2.4866,BJ,75970
11939,BJ,BEN,2019.0,Benin,BEN,7.32,2.0,7.83,6.62,Savalou,7.92807,1.97558,BJ,30187
11940,BJ,BEN,2019.0,Benin,BEN,7.32,2.0,7.83,6.62,Sakete,6.73618,2.65866,BJ,30111
11941,BJ,BEN,2019.0,Benin,BEN,7.32,2.0,7.83,6.62,Porto-Novo,6.49646,2.60359,BJ,234168
11942,BJ,BEN,2019.0,Benin,BEN,7.32,2.0,7.83,6.62,Pobe,6.98008,2.6649,BJ,32983
11943,BJ,BEN,2019.0,Benin,BEN,7.32,2.0,7.83,6.62,Parakou,9.33716,2.63031,BJ,163753
11944,BJ,BEN,2019.0,Benin,BEN,7.32,2.0,7.83,6.62,Ouidah,6.36307,2.08506,BJ,83503
11945,BJ,BEN,2019.0,Benin,BEN,7.32,2.0,7.83,6.62,Nikki,9.94009,3.21075,BJ,54009
11946,BJ,BEN,2019.0,Benin,BEN,7.32,2.0,7.83,6.62,Natitingou,10.30416,1.37962,BJ,80892
11947,BJ,BEN,2019.0,Benin,BEN,7.32,2.0,7.83,6.62,Malanville,11.86819,3.38327,BJ,37117
11948,BJ,BEN,2019.0,Benin,BEN,7.32,2.0,7.83,6.62,Lokossa,6.63869,1.71674,BJ,86971
11949,BJ,BEN,2019.0,Benin,BEN,7.32,2.0,7.83,6.62,Ketou,7.36332,2.59978,BJ,22341
11950,BJ,BEN,2019.0,Benin,BEN,7.32,2.0,7.83,6.62,Kandi,11.13417,2.93861,BJ,109701
11951,BJ,BEN,2019.0,Benin,BEN,7.32,2.0,7.83,6.62,Dogbo,6.81667,1.78333,BJ,41312
11952,BJ,BEN,2019.0,Benin,BEN,7.32,2.0,7.83,6.62,Djougou,9.70853,1.66598,BJ,237040
11953,BJ,BEN,2019.0,Benin,BEN,7.32,2.0,7.83,6.62,Dassa-Zoume,7.75,2.18333,BJ,21672
11954,BJ,BEN,2019.0,Benin,BEN,7.32,2.0,7.83,6.62,Cove,7.22097,2.34017,BJ,38566
11955,BJ,BEN,2019.0,Benin,BEN,7.32,2.0,7.83,6.62,Cotonou,6.36536,2.41833,BJ,780000
11956,BJ,BEN,2019.0,Benin,BEN,7.32,2.0,7.83,6.62,Come,6.40764,1.88198,BJ,29208
11957,BJ,BEN,2019.0,Benin,BEN,7.32,2.0,7.83,6.62,Bohicon,7.17826,2.0667,BJ,125092
11958,BJ,BEN,2019.0,Benin,BEN,7.32,2.0,7.83,6.62,Bembereke,10.22827,2.66335,BJ,24006
11959,BJ,BEN,2019.0,Benin,BEN,7.32,2.0,7.83,6.62,Bassila,9.00814,1.6654,BJ,23616
11960,BJ,BEN,2019.0,Benin,BEN,7.32,2.0,7.83,6.62,Banikoara,11.29845,2.43856,BJ,22487
11961,BJ,BEN,2019.0,Benin,BEN,7.32,2.0,7.83,6.62,Aplahoue,6.93333,1.68333,BJ,19862
11962,BJ,BEN,2019.0,Benin,BEN,7.32,2.0,7.83,6.62,Allada,6.66547,2.15138,BJ,20094
11963,BJ,BEN,2019.0,Benin,BEN,7.32,2.0,7.83,6.62,Abomey-Calavi,6.44852,2.35566,BJ,385755
11964,BJ,BEN,2019.0,Benin,BEN,7.32,2.0,7.83,6.62,Abomey,7.18286,1.99119,BJ,82154
12286,BN,BRN,2019.0,Brunei Darussalam,BRN,6.46,3.0,5.87,7.3,Tutong,4.8,114.65,BN,19151
12287,BN,BRN,2019.0,Brunei Darussalam,BRN,6.46,3.0,5.87,7.3,Seria,4.60637,114.32476,BN,30097
12288,BN,BRN,2019.0,Brunei Darussalam,BRN,6.46,3.0,5.87,7.3,Kuala Belait,4.58361,114.2312,BN,31178
12289,BN,BRN,2019.0,Brunei Darussalam,BRN,6.46,3.0,5.87,7.3,Bandar Seri Begawan,4.89035,114.94006,BN,64409
12334,BO,BOL,2019.0,Bolivia,BOL,6.94,3.0,7.41,6.28,Yacuiba,-22.01643,-63.67753,BO,82803
12335,BO,BOL,2019.0,Bolivia,BOL,6.94,3.0,7.41,6.28,Warnes,-17.5163,-63.16778,BO,22036
12336,BO,BOL,2019.0,Bolivia,BOL,6.94,3.0,7.41,6.28,Villazon,-22.08659,-65.59422,BO,30253
12337,BO,BOL,2019.0,Bolivia,BOL,6.94,3.0,7.41,6.28,Villa Yapacani,-17.4,-63.83333,BO,18187
12338,BO,BOL,2019.0,Bolivia,BOL,6.94,3.0,7.41,6.28,Villamontes,-21.26235,-63.46903,BO,18761
12339,BO,BOL,2019.0,Bolivia,BOL,6.94,3.0,7.41,6.28,Tupiza,-21.44345,-65.71875,BO,22233
12340,BO,BOL,2019.0,Bolivia,BOL,6.94,3.0,7.41,6.28,Trinidad,-14.83333,-64.9,BO,84259
12341,BO,BOL,2019.0,Bolivia,BOL,6.94,3.0,7.41,6.28,Tarija,-21.53549,-64.72956,BO,159269
12342,BO,BOL,2019.0,Bolivia,BOL,6.94,3.0,7.41,6.28,Sucre,-19.03332,-65.26274,BO,224838
12343,BO,BOL,2019.0,Bolivia,BOL,6.94,3.0,7.41,6.28,Santiago del Torno,-17.98674,-63.38118,BO,15543
12344,BO,BOL,2019.0,Bolivia,BOL,6.94,3.0,7.41,6.28,Santa Cruz de la Sierra,-17.78629,-63.18117,BO,1364389
12345,BO,BOL,2019.0,Bolivia,BOL,6.94,3.0,7.41,6.28,San Ignacio de Velasco,-16.36667,-60.95,BO,23569
12346,BO,BOL,2019.0,Bolivia,BOL,6.94,3.0,7.41,6.28,San Borja,-14.81667,-66.85,BO,19640
12347,BO,BOL,2019.0,Bolivia,BOL,6.94,3.0,7.41,6.28,Riberalta,-11.00654,-66.06312,BO,74014
12348,BO,BOL,2019.0,Bolivia,BOL,6.94,3.0,7.41,6.28,Quillacollo,-17.39228,-66.27838,BO,87309
12349,BO,BOL,2019.0,Bolivia,BOL,6.94,3.0,7.41,6.28,Punata,-17.54234,-65.83472,BO,15194
12350,BO,BOL,2019.0,Bolivia,BOL,6.94,3.0,7.41,6.28,Potosi,-19.58361,-65.75306,BO,141251
12351,BO,BOL,2019.0,Bolivia,BOL,6.94,3.0,7.41,6.28,Oruro,-17.98333,-67.15,BO,208684
12352,BO,BOL,2019.0,Bolivia,BOL,6.94,3.0,7.41,6.28,Montero,-17.33866,-63.2505,BO,88616
12353,BO,BOL,2019.0,Bolivia,BOL,6.94,3.0,7.41,6.28,Mizque,-17.94101,-65.34016,BO,30481
12354,BO,BOL,2019.0,Bolivia,BOL,6.94,3.0,7.41,6.28,Llallagua,-18.42426,-66.58388,BO,28069
12355,BO,BOL,2019.0,Bolivia,BOL,6.94,3.0,7.41,6.28,La Paz,-16.5,-68.15,BO,812799
12356,BO,BOL,2019.0,Bolivia,BOL,6.94,3.0,7.41,6.28,Huanuni,-18.289,-66.83583,BO,15492
12357,BO,BOL,2019.0,Bolivia,BOL,6.94,3.0,7.41,6.28,Guayaramerin,-10.83676,-65.36136,BO,36008
12358,BO,BOL,2019.0,Bolivia,BOL,6.94,3.0,7.41,6.28,Cotoca,-17.81667,-63.05,BO,18347
12359,BO,BOL,2019.0,Bolivia,BOL,6.94,3.0,7.41,6.28,Cochabamba,-17.3895,-66.1568,BO,900414
12360,BO,BOL,2019.0,Bolivia,BOL,6.94,3.0,7.41,6.28,Cobija,-11.02671,-68.76918,BO,26585
12361,BO,BOL,2019.0,Bolivia,BOL,6.94,3.0,7.41,6.28,Camiri,-20.03849,-63.51833,BO,27961
12671,BR,BRA,2019.0,Brazil,BRA,7.22,2.0,7.64,6.63,Vitoria do Mearim,-3.46222,-44.87056,BR,15775
12672,BR,BRA,2019.0,Brazil,BRA,7.22,2.0,7.64,6.63,Vitoria de Santo Antao,-8.11806,-35.29139,BR,107383
12673,BR,BRA,2019.0,Brazil,BRA,7.22,2.0,7.64,6.63,Viseu,-1.19667,-46.14,BR,18958
12674,BR,BRA,2019.0,Brazil,BRA,7.22,2.0,7.64,6.63,Conde,-7.25972,-34.9075,BR,15859
12675,BR,BRA,2019.0,Brazil,BRA,7.22,2.0,7.64,6.63,Vigia,-0.85833,-48.14167,BR,29229
12676,BR,BRA,2019.0,Brazil,BRA,7.22,2.0,7.64,6.63,Vicosa do Ceara,-3.56222,-41.09222,BR,16636
12677,BR,BRA,2019.0,Brazil,BRA,7.22,2.0,7.64,6.63,Vicosa,-9.37139,-36.24083,BR,19573
12678,BR,BRA,2019.0,Brazil,BRA,7.22,2.0,7.64,6.63,Viana,-3.22028,-45.00361,BR,26689
12679,BR,BRA,2019.0,Brazil,BRA,7.22,2.0,7.64,6.63,Varzea Alegre,-5.35,-40.38333,BR,21841
12680,BR,BRA,2019.0,Brazil,BRA,7.22,2.0,7.64,6.63,Varjota,-4.19444,-40.47667,BR,16462
12681,BR,BRA,2019.0,Brazil,BRA,7.22,2.0,7.64,6.63,Vargem Grande,-3.54306,-43.91583,BR,21419
12682,BR,BRA,2019.0,Brazil,BRA,7.22,2.0,7.64,6.63,Valenca do Piaui,-6.4075,-41.74556,BR,15881
12683,BR,BRA,2019.0,Brazil,BRA,7.22,2.0,7.64,6.63,Uniao dos Palmares,-9.16278,-36.03194,BR,41178
12684,BR,BRA,2019.0,Brazil,BRA,7.22,2.0,7.64,6.63,Uniao,-4.58583,-42.86417,BR,15677
12685,BR,BRA,2019.0,Brazil,BRA,7.22,2.0,7.64,6.63,Tuntum,-5.25806,-44.64889,BR,16402
12686,BR,BRA,2019.0,Brazil,BRA,7.22,2.0,7.64,6.63,Tucurui,-3.76585,-49.67923,BR,76337
12687,BR,BRA,2019.0,Brazil,BRA,7.22,2.0,7.64,6.63,Tucuma,-0.18333,-50.05,BR,15030
12688,BR,BRA,2019.0,Brazil,BRA,7.22,2.0,7.64,6.63,Trindade,-7.76194,-40.26778,BR,19313
12689,BR,BRA,2019.0,Brazil,BRA,7.22,2.0,7.64,6.63,Trairi,-3.27778,-39.26889,BR,23126
12690,BR,BRA,2019.0,Brazil,BRA,7.22,2.0,7.64,6.63,Toritama,-8.00667,-36.05667,BR,23940
12691,BR,BRA,2019.0,Brazil,BRA,7.22,2.0,7.64,6.63,Tome Acu,-2.41889,-48.15222,BR,34053
12692,BR,BRA,2019.0,Brazil,BRA,7.22,2.0,7.64,6.63,Timon,-5.09417,-42.83667,BR,124427
12693,BR,BRA,2019.0,Brazil,BRA,7.22,2.0,7.64,6.63,Timbiras,-4.25528,-43.94056,BR,17875
12694,BR,BRA,2019.0,Brazil,BRA,7.22,2.0,7.64,6.63,Timbauba,-7.50528,-35.31833,BR,45121
12695,BR,BRA,2019.0,Brazil,BRA,7.22,2.0,7.64,6.63,Tiangua,-3.73222,-40.99167,BR,45696
12696,BR,BRA,2019.0,Brazil,BRA,7.22,2.0,7.64,6.63,Teresina,-5.08917,-42.80194,BR,744512
12697,BR,BRA,2019.0,Brazil,BRA,7.22,2.0,7.64,6.63,Sao Joao dos Inhamuns,-6,-40.28333,BR,29188
12698,BR,BRA,2019.0,Brazil,BRA,7.22,2.0,7.64,6.63,Tamandare,-8.75632,-35.09995,BR,17954
12699,BR,BRA,2019.0,Brazil,BRA,7.22,2.0,7.64,6.63,Tabira,-7.59083,-37.53944,BR,16926
12700,BR,BRA,2019.0,Brazil,BRA,7.22,2.0,7.64,6.63,Surubim,-7.83306,-35.75472,BR,34580
12701,BR,BRA,2019.0,Brazil,BRA,7.22,2.0,7.64,6.63,Sousa,-6.75917,-38.22806,BR,47927
12702,BR,BRA,2019.0,Brazil,BRA,7.22,2.0,7.64,6.63,Soure,-0.71667,-48.52333,BR,18212
12703,BR,BRA,2019.0,Brazil,BRA,7.22,2.0,7.64,6.63,Solanea,-6.755,-35.54,BR,17030
12704,BR,BRA,2019.0,Brazil,BRA,7.22,2.0,7.64,6.63,Sobral,-3.68611,-40.34972,BR,157996
12705,BR,BRA,2019.0,Brazil,BRA,7.22,2.0,7.64,6.63,Sirinhaem,-8.59083,-35.11611,BR,40852
12706,BR,BRA,2019.0,Brazil,BRA,7.22,2.0,7.64,6.63,Sertania,-8.07361,-37.26444,BR,18190
12707,BR,BRA,2019.0,Brazil,BRA,7.22,2.0,7.64,6.63,Serra Talhada,-7.99194,-38.29833,BR,51203
12708,BR,BRA,2019.0,Brazil,BRA,7.22,2.0,7.64,6.63,Senador Pompeu,-5.58806,-39.37167,BR,16515
12709,BR,BRA,2019.0,Brazil,BRA,7.22,2.0,7.64,6.63,Satuba,-9.56333,-35.82444,BR,15887
12710,BR,BRA,2019.0,Brazil,BRA,7.22,2.0,7.64,6.63,Sao Raimundo Nonato,-9.01528,-42.69944,BR,19569
12711,BR,BRA,2019.0,Brazil,BRA,7.22,2.0,7.64,6.63,Sao Miguel dos Campos,-9.78111,-36.09361,BR,40890
12712,BR,BRA,2019.0,Brazil,BRA,7.22,2.0,7.64,6.63,Sao Miguel do Guama,-1.62667,-47.48333,BR,28265
12713,BR,BRA,2019.0,Brazil,BRA,7.22,2.0,7.64,6.63,Sao Mateus do Maranhao,-4.04167,-44.475,BR,28233
12714,BR,BRA,2019.0,Brazil,BRA,7.22,2.0,7.64,6.63,Sao Luis do Quitunde,-9.31833,-35.56111,BR,20563
12715,BR,BRA,2019.0,Brazil,BRA,7.22,2.0,7.64,6.63,Sao Luis,-2.52972,-44.30278,BR,917237
12716,BR,BRA,2019.0,Brazil,BRA,7.22,2.0,7.64,6.63,Sao Lourenco da Mata,-8.00222,-35.01833,BR,88416
12717,BR,BRA,2019.0,Brazil,BRA,7.22,2.0,7.64,6.63,Sao Jose do Egito,-7.47889,-37.27444,BR,18218
12718,BR,BRA,2019.0,Brazil,BRA,7.22,2.0,7.64,6.63,Sao Jose de Ribamar,-2.56194,-44.05417,BR,27777
12719,BR,BRA,2019.0,Brazil,BRA,7.22,2.0,7.64,6.63,Sao Jose de Mipibu,-6.07472,-35.23778,BR,15298
12720,BR,BRA,2019.0,Brazil,BRA,7.22,2.0,7.64,6.63,Sao Joao dos Patos,-6.495,-43.70222,BR,19538
12721,BR,BRA,2019.0,Brazil,BRA,7.22,2.0,7.64,6.63,Sao Goncalo do Amarante,-3.60722,-38.96833,BR,23583
12722,BR,BRA,2019.0,Brazil,BRA,7.22,2.0,7.64,6.63,Sao Felix do Xingu,-6.64472,-51.995,BR,16477
12723,BR,BRA,2019.0,Brazil,BRA,7.22,2.0,7.64,6.63,Sao Domingos do Maranhao,-5.57583,-44.38528,BR,18275
12724,BR,BRA,2019.0,Brazil,BRA,7.22,2.0,7.64,6.63,Sao Bento,-6.28333,-37.75,BR,24749
12725,BR,BRA,2019.0,Brazil,BRA,7.22,2.0,7.64,6.63,Sao Bento,-2.69583,-44.82139,BR,17245
12726,BR,BRA,2019.0,Brazil,BRA,7.22,2.0,7.64,6.63,Santa Rita,-7.11389,-34.97806,BR,119893
12727,BR,BRA,2019.0,Brazil,BRA,7.22,2.0,7.64,6.63,Santarem,-2.44306,-54.70833,BR,189047
12728,BR,BRA,2019.0,Brazil,BRA,7.22,2.0,7.64,6.63,Santa Quiteria do Maranhao,-3.51556,-42.54667,BR,17174
12729,BR,BRA,2019.0,Brazil,BRA,7.22,2.0,7.64,6.63,Santa Quiteria,-4.33194,-40.15667,BR,24391
12730,BR,BRA,2019.0,Brazil,BRA,7.22,2.0,7.64,6.63,Santana do Ipanema,-9.37833,-37.24528,BR,26146
12731,BR,BRA,2019.0,Brazil,BRA,7.22,2.0,7.64,6.63,Santa Luzia,-7.64265,-47.21738,BR,22909
12732,BR,BRA,2019.0,Brazil,BRA,7.22,2.0,7.64,6.63,Santa Ines,-3.66667,-45.38,BR,67424
12733,BR,BRA,2019.0,Brazil,BRA,7.22,2.0,7.64,6.63,Santa Helena,-2.23111,-45.3,BR,16045
12734,BR,BRA,2019.0,Brazil,BRA,7.22,2.0,7.64,6.63,Santa Cruz do Capibaribe,-7.9575,-36.20472,BR,76450
12735,BR,BRA,2019.0,Brazil,BRA,7.22,2.0,7.64,6.63,Santa Cruz,-6.22944,-36.02278,BR,27775
12736,BR,BRA,2019.0,Brazil,BRA,7.22,2.0,7.64,6.63,Salinopolis,-0.61361,-47.35611,BR,40998
12737,BR,BRA,2019.0,Brazil,BRA,7.22,2.0,7.64,6.63,Salgueiro,-8.07417,-39.11917,BR,42152
12738,BR,BRA,2019.0,Brazil,BRA,7.22,2.0,7.64,6.63,Russas,-4.94028,-37.97583,BR,39465
12739,BR,BRA,2019.0,Brazil,BRA,7.22,2.0,7.64,6.63,Rio Largo,-9.47833,-35.85333,BR,63387
12740,BR,BRA,2019.0,Brazil,BRA,7.22,2.0,7.64,6.63,Rio Formoso,-8.66877,-35.16277,BR,15518
12741,BR,BRA,2019.0,Brazil,BRA,7.22,2.0,7.64,6.63,Ribeirao,-8.51444,-35.37778,BR,29818
12742,BR,BRA,2019.0,Brazil,BRA,7.22,2.0,7.64,6.63,Recife,-8.05389,-34.88111,BR,1478098
12743,BR,BRA,2019.0,Brazil,BRA,7.22,2.0,7.64,6.63,Quixeramobim,-5.19917,-39.29278,BR,34321
12744,BR,BRA,2019.0,Brazil,BRA,7.22,2.0,7.64,6.63,Quixada,-4.97139,-39.01528,BR,49328
12745,BR,BRA,2019.0,Brazil,BRA,7.22,2.0,7.64,6.63,Presidente Dutra,-5.29,-44.49,BR,30330
12746,BR,BRA,2019.0,Brazil,BRA,7.22,2.0,7.64,6.63,Santana,-0.05833,-51.18167,BR,83927
12747,BR,BRA,2019.0,Brazil,BRA,7.22,2.0,7.64,6.63,Porto Calvo,-9.045,-35.39833,BR,17346
12748,BR,BRA,2019.0,Brazil,BRA,7.22,2.0,7.64,6.63,Portel,-1.93556,-50.82111,BR,21315
