,ISO2,ISO3,country,year,countries,ISO,hf_score,hf_quartile,pf_score,ef_score,asciiname,latitude,longitude,country code,population
0,AD,AND,Andorra,2019.0,Andorra,,,0.0,,,les Escaldes,42.50729,1.53414,AD,15853.0
1,AD,AND,Andorra,2019.0,Andorra,,,0.0,,,Andorra la Vella,42.50779,1.52109,AD,20430.0
2,AE,ARE,United Arab Emirates,2019.0,United Arab Emirates,ARE,6.06,4.0,5.2,7.28,Umm al Qaywayn,25.56473,55.55517,AE,44411.0
3,AE,ARE,United Arab Emirates,2019.0,United Arab Emirates,ARE,6.06,4.0,5.2,7.28,Ras al-Khaimah,25.78953,55.9432,AE,115949.0
4,AE,ARE,United Arab Emirates,2019.0,United Arab Emirates,ARE,6.06,4.0,5.2,7.28,Khawr Fakkan,25.33132,56.34199,AE,33575.0
5,AE,ARE,United Arab Emirates,2019.0,United Arab Emirates,ARE,6.06,4.0,5.2,7.28,Dubai,25.0657,55.17128,AE,1137347.0
6,AE,ARE,United Arab Emirates,2019.0,United Arab Emirates,ARE,6.06,4.0,5.2,7.28,Dibba Al-Fujairah,25.59246,56.26176,AE,30000.0
7,AE,ARE,United Arab Emirates,2019.0,United Arab Emirates,ARE,6.06,4.0,5.2,7.28,Dibba Al-Hisn,25.61955,56.27291,AE,26395.0
8,AE,ARE,United Arab Emirates,2019.0,United Arab Emirates,ARE,6.06,4.0,5.2,7.28,Sharjah,25.33737,55.41206,AE,543733.0
9,AE,ARE,United Arab Emirates,2019.0,United Arab Emirates,ARE,6.06,4.0,5.2,7.28,Ar Ruways,24.11028,52.73056,AE,16000.0
10,AE,ARE,United Arab Emirates,2019.0,United Arab Emirates,ARE,6.06,4.0,5.2,7.28,Al Fujayrah,25.11641,56.34141,AE,62415.0
11,AE,ARE,United Arab Emirates,2019.0,United Arab Emirates,ARE,6.06,4.0,5.2,7.28,Al Ain,24.19167,55.76056,AE,408733.0
12,AE,ARE,United Arab Emirates,2019.0,United Arab Emirates,ARE,6.06,4.0,5.2,7.28,Ajman,25.41111,55.43504,AE,226172.0
13,AE,ARE,United Arab Emirates,2019.0,United Arab Emirates,ARE,6.06,4.0,5.2,7.28,Adh Dhayd,25.28812,55.88157,AE,24716.0
14,AE,ARE,United Arab Emirates,2019.0,United Arab Emirates,ARE,6.06,4.0,5.2,7.28,Abu Dhabi,24.46667,54.36667,AE,603492.0
158,AF,AFG,Afghanistan,2019.0,Afghanistan,,,0.0,,,Zaranj,30.95962,61.86037,AF,49851.0
159,AF,AFG,Afghanistan,2019.0,Afghanistan,,,0.0,,,Taloqan,36.73605,69.53451,AF,64256.0
160,AF,AFG,Afghanistan,2019.0,Afghanistan,,,0.0,,,Shindand,33.30294,62.1474,AF,29264.0
161,AF,AFG,Afghanistan,2019.0,Afghanistan,,,0.0,,,Shibirghan,36.66757,65.7529,AF,55641.0
162,AF,AFG,Afghanistan,2019.0,Afghanistan,,,0.0,,,Shahrak,34.10737,64.3052,AF,15967.0
163,AF,AFG,Afghanistan,2019.0,Afghanistan,,,0.0,,,Sar-e Pul,36.21544,65.93249,AF,52121.0
164,AF,AFG,Afghanistan,2019.0,Afghanistan,,,0.0,,,Sang-e Charak,35.84972,66.43694,AF,15377.0
165,AF,AFG,Afghanistan,2019.0,Afghanistan,,,0.0,,,Aibak,36.26468,68.01551,AF,47823.0
166,AF,AFG,Afghanistan,2019.0,Afghanistan,,,0.0,,,Rustaq,37.12604,69.83045,AF,25636.0
167,AF,AFG,Afghanistan,2019.0,Afghanistan,,,0.0,,,Qarqin,37.41853,66.04358,AF,15018.0
168,AF,AFG,Afghanistan,2019.0,Afghanistan,,,0.0,,,Qarawul,37.21959,68.7802,AF,24544.0
169,AF,AFG,Afghanistan,2019.0,Afghanistan,,,0.0,,,Pul-e Khumri,35.94458,68.71512,AF,56369.0
170,AF,AFG,Afghanistan,2019.0,Afghanistan,,,0.0,,,Paghman,34.58787,68.95091,AF,49157.0
171,AF,AFG,Afghanistan,2019.0,Afghanistan,,,0.0,,,Nahrin,36.0649,69.13343,AF,22363.0
172,AF,AFG,Afghanistan,2019.0,Afghanistan,,,0.0,,,Maymana,35.92139,64.78361,AF,75900.0
173,AF,AFG,Afghanistan,2019.0,Afghanistan,,,0.0,,,Mehtar Lam,34.67139,70.20944,AF,17345.0
174,AF,AFG,Afghanistan,2019.0,Afghanistan,,,0.0,,,Mazar-e Sharif,36.70904,67.11087,AF,303282.0
175,AF,AFG,Afghanistan,2019.0,Afghanistan,,,0.0,,,Lashkar Gah,31.59382,64.37161,AF,43934.0
176,AF,AFG,Afghanistan,2019.0,Afghanistan,,,0.0,,,Kushk,33.29565,61.95221,AF,16952.0
177,AF,AFG,Afghanistan,2019.0,Afghanistan,,,0.0,,,Kunduz,36.72895,68.857,AF,161902.0
178,AF,AFG,Afghanistan,2019.0,Afghanistan,,,0.0,,,Khost,33.33951,69.92041,AF,96123.0
179,AF,AFG,Afghanistan,2019.0,Afghanistan,,,0.0,,,Khulm,36.69736,67.69826,AF,64933.0
180,AF,AFG,Afghanistan,2019.0,Afghanistan,,,0.0,,,Khash,31.52919,62.79055,AF,15133.0
181,AF,AFG,Afghanistan,2019.0,Afghanistan,,,0.0,,,Khanabad,36.6825,69.11556,AF,71531.0
182,AF,AFG,Afghanistan,2019.0,Afghanistan,,,0.0,,,Karukh,34.48108,62.5863,AF,17484.0
183,AF,AFG,Afghanistan,2019.0,Afghanistan,,,0.0,,,Kandahar,31.61332,65.71013,AF,391190.0
184,AF,AFG,Afghanistan,2019.0,Afghanistan,,,0.0,,,Kabul,34.52813,69.17233,AF,3043532.0
185,AF,AFG,Afghanistan,2019.0,Afghanistan,,,0.0,,,Jalalabad,34.42647,70.45153,AF,200331.0
186,AF,AFG,Afghanistan,2019.0,Afghanistan,,,0.0,,,Jabal os Saraj,35.11833,69.23778,AF,15032.0
187,AF,AFG,Afghanistan,2019.0,Afghanistan,,,0.0,,,Herat,34.34817,62.19967,AF,272806.0
188,AF,AFG,Afghanistan,2019.0,Afghanistan,,,0.0,,,Ghormach,35.73062,63.78264,AF,30000.0
189,AF,AFG,Afghanistan,2019.0,Afghanistan,,,0.0,,,Ghazni,33.55391,68.42096,AF,141000.0
190,AF,AFG,Afghanistan,2019.0,Afghanistan,,,0.0,,,Gereshk,31.82089,64.57005,AF,43588.0
191,AF,AFG,Afghanistan,2019.0,Afghanistan,,,0.0,,,Gardez,33.59744,69.22592,AF,103601.0
192,AF,AFG,Afghanistan,2019.0,Afghanistan,,,0.0,,,Fayzabad,37.11664,70.58002,AF,44421.0
193,AF,AFG,Afghanistan,2019.0,Afghanistan,,,0.0,,,Farah,32.37451,62.11638,AF,43561.0
194,AF,AFG,Afghanistan,2019.0,Afghanistan,,,0.0,,,Kafir Qala,34.66667,61.06667,AF,18086.0
195,AF,AFG,Afghanistan,2019.0,Afghanistan,,,0.0,,,Charikar,35.01361,69.17139,AF,53676.0
196,AF,AFG,Afghanistan,2019.0,Afghanistan,,,0.0,,,Baraki Barak,33.96744,68.9492,AF,22305.0
197,AF,AFG,Afghanistan,2019.0,Afghanistan,,,0.0,,,Bamyan,34.82156,67.82734,AF,61863.0
198,AF,AFG,Afghanistan,2019.0,Afghanistan,,,0.0,,,Balkh,36.75635,66.8972,AF,114883.0
199,AF,AFG,Afghanistan,2019.0,Afghanistan,,,0.0,,,Baghlan,36.13068,68.70829,AF,108449.0
200,AF,AFG,Afghanistan,2019.0,Afghanistan,,,0.0,,,Art Khwajah,37.08571,69.47958,AF,18623.0
201,AF,AFG,Afghanistan,2019.0,Afghanistan,,,0.0,,,Asmar,35.03333,71.35809,AF,15708.0
202,AF,AFG,Afghanistan,2019.0,Afghanistan,,,0.0,,,Asadabad,34.87311,71.14697,AF,48400.0
203,AF,AFG,Afghanistan,2019.0,Afghanistan,,,0.0,,,Andkhoy,36.95293,65.12376,AF,29208.0
204,AF,AFG,Afghanistan,2019.0,Afghanistan,,,0.0,,,Bazarak,35.31292,69.51519,AF,65000.0
205,AF,AFG,Afghanistan,2019.0,Afghanistan,,,0.0,,,Markaz-e Woluswali-ye Achin,34.12583,70.70778,AF,15098.0
206,AG,ATG,Antigua and Barbuda,2019.0,Antigua and Barbuda,,,0.0,,,Saint John's,17.12096,-61.84329,AG,24226.0
207,AI,AIA,Anguilla,2019.0,Anguilla,,,0.0,,,The Valley,18.21704,-63.05783,AI,2035.0
208,AL,ALB,Albania,2019.0,Albania,ALB,8.14,2.0,8.38,7.81,Sarande,39.87556,20.00528,AL,15147.0
209,AL,ALB,Albania,2019.0,Albania,ALB,8.14,2.0,8.38,7.81,Kukes,42.07694,20.42194,AL,17832.0
210,AL,ALB,Albania,2019.0,Albania,ALB,8.14,2.0,8.38,7.81,Korce,40.61861,20.78083,AL,58259.0
211,AL,ALB,Albania,2019.0,Albania,ALB,8.14,2.0,8.38,7.81,Gjirokaster,40.07583,20.13889,AL,23437.0
212,AL,ALB,Albania,2019.0,Albania,ALB,8.14,2.0,8.38,7.81,Elbasan,41.1125,20.08222,AL,100903.0
213,AL,ALB,Albania,2019.0,Albania,ALB,8.14,2.0,8.38,7.81,Burrel,41.61028,20.00889,AL,15405.0
214,AL,ALB,Albania,2019.0,Albania,ALB,8.14,2.0,8.38,7.81,Vlore,40.46667,19.48972,AL,89546.0
215,AL,ALB,Albania,2019.0,Albania,ALB,8.14,2.0,8.38,7.81,Tirana,41.3275,19.81889,AL,374801.0
216,AL,ALB,Albania,2019.0,Albania,ALB,8.14,2.0,8.38,7.81,Shkoder,42.06828,19.51258,AL,88245.0
217,AL,ALB,Albania,2019.0,Albania,ALB,8.14,2.0,8.38,7.81,Patos Fshat,40.64278,19.65083,AL,22679.0
218,AL,ALB,Albania,2019.0,Albania,ALB,8.14,2.0,8.38,7.81,Lushnje,40.94194,19.705,AL,41469.0
219,AL,ALB,Albania,2019.0,Albania,ALB,8.14,2.0,8.38,7.81,Lezhe,41.78361,19.64361,AL,18695.0
220,AL,ALB,Albania,2019.0,Albania,ALB,8.14,2.0,8.38,7.81,Lac,41.63556,19.71306,AL,24825.0
221,AL,ALB,Albania,2019.0,Albania,ALB,8.14,2.0,8.38,7.81,Kucove,40.80028,19.91667,AL,18166.0
222,AL,ALB,Albania,2019.0,Albania,ALB,8.14,2.0,8.38,7.81,Kruje,41.50917,19.79278,AL,21286.0
223,AL,ALB,Albania,2019.0,Albania,ALB,8.14,2.0,8.38,7.81,Kavaje,41.18556,19.55694,AL,29354.0
224,AL,ALB,Albania,2019.0,Albania,ALB,8.14,2.0,8.38,7.81,Fier-Cifci,40.71667,19.56667,AL,60995.0
225,AL,ALB,Albania,2019.0,Albania,ALB,8.14,2.0,8.38,7.81,Fier,40.72389,19.55611,AL,56297.0
226,AL,ALB,Albania,2019.0,Albania,ALB,8.14,2.0,8.38,7.81,Durres,41.32306,19.44139,AL,122034.0
227,AL,ALB,Albania,2019.0,Albania,ALB,8.14,2.0,8.38,7.81,Berat,40.70583,19.95222,AL,46866.0
448,AM,ARM,Armenia,2019.0,Armenia,ARM,8.2,1.0,8.32,8.03,Kapan,39.20755,46.40576,AM,33160.0
449,AM,ARM,Armenia,2019.0,Armenia,ARM,8.2,1.0,8.32,8.03,Goris,39.51111,46.34168,AM,20379.0
450,AM,ARM,Armenia,2019.0,Armenia,ARM,8.2,1.0,8.32,8.03,Hats'avan,39.46405,45.97047,AM,15208.0
451,AM,ARM,Armenia,2019.0,Armenia,ARM,8.2,1.0,8.32,8.03,Artashat,39.96144,44.54447,AM,20562.0
452,AM,ARM,Armenia,2019.0,Armenia,ARM,8.2,1.0,8.32,8.03,Ararat,39.83069,44.70569,AM,28832.0
453,AM,ARM,Armenia,2019.0,Armenia,ARM,8.2,1.0,8.32,8.03,Yerevan,40.18111,44.51361,AM,1093485.0
454,AM,ARM,Armenia,2019.0,Armenia,ARM,8.2,1.0,8.32,8.03,Ejmiatsin,40.16557,44.29462,AM,49513.0
455,AM,ARM,Armenia,2019.0,Armenia,ARM,8.2,1.0,8.32,8.03,Step'anavan,41.00995,44.38531,AM,23782.0
456,AM,ARM,Armenia,2019.0,Armenia,ARM,8.2,1.0,8.32,8.03,Spitak,40.83221,44.26731,AM,15059.0
457,AM,ARM,Armenia,2019.0,Armenia,ARM,8.2,1.0,8.32,8.03,Sevan,40.5473,44.94171,AM,17083.0
458,AM,ARM,Armenia,2019.0,Armenia,ARM,8.2,1.0,8.32,8.03,Masis,40.06542,44.41618,AM,18911.0
459,AM,ARM,Armenia,2019.0,Armenia,ARM,8.2,1.0,8.32,8.03,Vanadzor,40.80456,44.4939,AM,101098.0
460,AM,ARM,Armenia,2019.0,Armenia,ARM,8.2,1.0,8.32,8.03,Gavarr,40.35398,45.12386,AM,21680.0
461,AM,ARM,Armenia,2019.0,Armenia,ARM,8.2,1.0,8.32,8.03,Hrazdan,40.49748,44.7662,AM,40795.0
462,AM,ARM,Armenia,2019.0,Armenia,ARM,8.2,1.0,8.32,8.03,Armavir,40.15446,44.03815,AM,25963.0
463,AM,ARM,Armenia,2019.0,Armenia,ARM,8.2,1.0,8.32,8.03,Gyumri,40.7942,43.84528,AM,148381.0
464,AM,ARM,Armenia,2019.0,Armenia,ARM,8.2,1.0,8.32,8.03,Ashtarak,40.2991,44.36204,AM,18779.0
465,AM,ARM,Armenia,2019.0,Armenia,ARM,8.2,1.0,8.32,8.03,Abovyan,40.27368,44.63348,AM,35673.0
664,AO,AGO,Angola,2019.0,Angola,AGO,6.09,4.0,6.5,5.5,Saurimo,-9.66078,20.39155,AO,40498.0
665,AO,AGO,Angola,2019.0,Angola,AGO,6.09,4.0,6.5,5.5,Lucapa,-8.41915,20.74466,AO,20115.0
666,AO,AGO,Angola,2019.0,Angola,AGO,6.09,4.0,6.5,5.5,Luau,-10.70727,22.22466,AO,18465.0
667,AO,AGO,Angola,2019.0,Angola,AGO,6.09,4.0,6.5,5.5,Uige,-7.60874,15.06131,AO,60008.0
668,AO,AGO,Angola,2019.0,Angola,AGO,6.09,4.0,6.5,5.5,Soio,-6.1349,12.36894,AO,67491.0
669,AO,AGO,Angola,2019.0,Angola,AGO,6.09,4.0,6.5,5.5,N'zeto,-7.23116,12.8666,AO,18352.0
670,AO,AGO,Angola,2019.0,Angola,AGO,6.09,4.0,6.5,5.5,N'dalatando,-9.29782,14.91162,AO,383100.0
671,AO,AGO,Angola,2019.0,Angola,AGO,6.09,4.0,6.5,5.5,Mbanza Congo,-6.26703,14.2401,AO,24220.0
672,AO,AGO,Angola,2019.0,Angola,AGO,6.09,4.0,6.5,5.5,Malanje,-9.54015,16.34096,AO,87046.0
673,AO,AGO,Angola,2019.0,Angola,AGO,6.09,4.0,6.5,5.5,Luanda,-8.83682,13.23432,AO,2776168.0
674,AO,AGO,Angola,2019.0,Angola,AGO,6.09,4.0,6.5,5.5,Caxito,-8.57848,13.66425,AO,28224.0
675,AO,AGO,Angola,2019.0,Angola,AGO,6.09,4.0,6.5,5.5,Cabinda,-5.55,12.2,AO,66020.0
676,AO,AGO,Angola,2019.0,Angola,AGO,6.09,4.0,6.5,5.5,Sumbe,-11.20605,13.84371,AO,33277.0
677,AO,AGO,Angola,2019.0,Angola,AGO,6.09,4.0,6.5,5.5,Namibe,-15.19611,12.15222,AO,80149.0
678,AO,AGO,Angola,2019.0,Angola,AGO,6.09,4.0,6.5,5.5,Menongue,-14.6585,17.69099,AO,32203.0
679,AO,AGO,Angola,2019.0,Angola,AGO,6.09,4.0,6.5,5.5,Luena,-11.78333,19.91667,AO,21115.0
680,AO,AGO,Angola,2019.0,Angola,AGO,6.09,4.0,6.5,5.5,Lubango,-14.91717,13.4925,AO,102541.0
681,AO,AGO,Angola,2019.0,Angola,AGO,6.09,4.0,6.5,5.5,Longonjo,-12.90667,15.25333,AO,24346.0
682,AO,AGO,Angola,2019.0,Angola,AGO,6.09,4.0,6.5,5.5,Lobito,-12.3644,13.53601,AO,207932.0
683,AO,AGO,Angola,2019.0,Angola,AGO,6.09,4.0,6.5,5.5,Cuito,-12.38333,16.93333,AO,113624.0
684,AO,AGO,Angola,2019.0,Angola,AGO,6.09,4.0,6.5,5.5,Huambo,-12.77611,15.73917,AO,226145.0
685,AO,AGO,Angola,2019.0,Angola,AGO,6.09,4.0,6.5,5.5,Catumbela,-12.43002,13.54677,AO,16977.0
686,AO,AGO,Angola,2019.0,Angola,AGO,6.09,4.0,6.5,5.5,Catabola,-12.15,17.28333,AO,18855.0
687,AO,AGO,Angola,2019.0,Angola,AGO,6.09,4.0,6.5,5.5,Camacupa,-12.01667,17.48333,AO,19150.0
688,AO,AGO,Angola,2019.0,Angola,AGO,6.09,4.0,6.5,5.5,Caluquembe,-13.78333,14.68333,AO,30300.0
689,AO,AGO,Angola,2019.0,Angola,AGO,6.09,4.0,6.5,5.5,Caala,-12.8525,15.56056,AO,21205.0
690,AO,AGO,Angola,2019.0,Angola,AGO,6.09,4.0,6.5,5.5,Benguela,-12.57626,13.40547,AO,151226.0
988,AQ,ATA,Antarctica,2019.0,Antarctica,,,0.0,,,,,,,
989,AR,ARG,Argentina,2019.0,Argentina,ARG,7.38,2.0,8.73,5.5,Zarate,-34.09814,-59.02858,AR,88781.0
990,AR,ARG,Argentina,2019.0,Argentina,ARG,7.38,2.0,8.73,5.5,Villa Ortuzar,-34.57973,-58.46829,AR,22500.0
991,AR,ARG,Argentina,2019.0,Argentina,ARG,7.38,2.0,8.73,5.5,Villa Ocampo,-28.48752,-59.35515,AR,19101.0
992,AR,ARG,Argentina,2019.0,Argentina,ARG,7.38,2.0,8.73,5.5,Villa Lugano,-34.67907,-58.47263,AR,114000.0
993,AR,ARG,Argentina,2019.0,Argentina,ARG,7.38,2.0,8.73,5.5,Villaguay,-31.8653,-59.02689,AR,32027.0
994,AR,ARG,Argentina,2019.0,Argentina,ARG,7.38,2.0,8.73,5.5,Villa Gesell,-37.26394,-56.97304,AR,23257.0
995,AR,ARG,Argentina,2019.0,Argentina,ARG,7.38,2.0,8.73,5.5,Tigre,-34.42603,-58.57962,AR,31106.0
996,AR,ARG,Argentina,2019.0,Argentina,ARG,7.38,2.0,8.73,5.5,Tandil,-37.32167,-59.13316,AR,104325.0
997,AR,ARG,Argentina,2019.0,Argentina,ARG,7.38,2.0,8.73,5.5,San Vicente,-26.61667,-54.13333,AR,38247.0
998,AR,ARG,Argentina,2019.0,Argentina,ARG,7.38,2.0,8.73,5.5,Santo Tome,-28.54939,-56.04077,AR,22634.0
999,AR,ARG,Argentina,2019.0,Argentina,ARG,7.38,2.0,8.73,5.5,Santa Elena,-30.94768,-59.78696,AR,18410.0
1000,AR,ARG,Argentina,2019.0,Argentina,ARG,7.38,2.0,8.73,5.5,San Pedro,-26.62207,-54.10842,AR,23736.0
1001,AR,ARG,Argentina,2019.0,Argentina,ARG,7.38,2.0,8.73,5.5,San Luis del Palmar,-27.5079,-58.55454,AR,15347.0
1002,AR,ARG,Argentina,2019.0,Argentina,ARG,7.38,2.0,8.73,5.5,San Lorenzo,-28.13306,-58.76733,AR,47626.0
1003,AR,ARG,Argentina,2019.0,Argentina,ARG,7.38,2.0,8.73,5.5,San Javier,-30.57781,-59.9317,AR,15606.0
1004,AR,ARG,Argentina,2019.0,Argentina,ARG,7.38,2.0,8.73,5.5,San Isidro,-34.4721,-58.52708,AR,45190.0
1005,AR,ARG,Argentina,2019.0,Argentina,ARG,7.38,2.0,8.73,5.5,Saladas,-28.25384,-58.62591,AR,18349.0
1006,AR,ARG,Argentina,2019.0,Argentina,ARG,7.38,2.0,8.73,5.5,Retiro,-34.58333,-58.38333,AR,38635.0
1007,AR,ARG,Argentina,2019.0,Argentina,ARG,7.38,2.0,8.73,5.5,Resistencia,-27.46056,-58.98389,AR,387158.0
1008,AR,ARG,Argentina,2019.0,Argentina,ARG,7.38,2.0,8.73,5.5,Reconquista,-29.15,-59.65,AR,90184.0
1009,AR,ARG,Argentina,2019.0,Argentina,ARG,7.38,2.0,8.73,5.5,Quilmes,-34.72904,-58.26374,AR,518788.0
1010,AR,ARG,Argentina,2019.0,Argentina,ARG,7.38,2.0,8.73,5.5,Puerto Rico,-26.79598,-55.02402,AR,17491.0
1011,AR,ARG,Argentina,2019.0,Argentina,ARG,7.38,2.0,8.73,5.5,Puerto Iguazu,-25.59912,-54.57355,AR,32038.0
1012,AR,ARG,Argentina,2019.0,Argentina,ARG,7.38,2.0,8.73,5.5,Puerto Esperanza,-26.01517,-54.67306,AR,15579.0
1013,AR,ARG,Argentina,2019.0,Argentina,ARG,7.38,2.0,8.73,5.5,Puerto Eldorado,-26.40843,-54.69463,AR,54189.0
1014,AR,ARG,Argentina,2019.0,Argentina,ARG,7.38,2.0,8.73,5.5,Posadas,-27.36708,-55.89608,AR,323739.0
1015,AR,ARG,Argentina,2019.0,Argentina,ARG,7.38,2.0,8.73,5.5,Pontevedra,-34.74785,-58.70072,AR,33515.0
1016,AR,ARG,Argentina,2019.0,Argentina,ARG,7.38,2.0,8.73,5.5,Pirane,-25.73239,-59.10879,AR,19124.0
1017,AR,ARG,Argentina,2019.0,Argentina,ARG,7.38,2.0,8.73,5.5,Paso de los Libres,-29.71251,-57.08771,AR,43805.0
1018,AR,ARG,Argentina,2019.0,Argentina,ARG,7.38,2.0,8.73,5.5,Obera,-27.48706,-55.11994,AR,56528.0
1019,AR,ARG,Argentina,2019.0,Argentina,ARG,7.38,2.0,8.73,5.5,Necochea,-38.5545,-58.73961,AR,80478.0
1020,AR,ARG,Argentina,2019.0,Argentina,ARG,7.38,2.0,8.73,5.5,Moron,-34.6509,-58.61956,AR,319934.0
1021,AR,ARG,Argentina,2019.0,Argentina,ARG,7.38,2.0,8.73,5.5,Monte Caseros,-30.25359,-57.63626,AR,24671.0
1022,AR,ARG,Argentina,2019.0,Argentina,ARG,7.38,2.0,8.73,5.5,Montecarlo,-26.5662,-54.757,AR,22229.0
1023,AR,ARG,Argentina,2019.0,Argentina,ARG,7.38,2.0,8.73,5.5,Mercedes,-34.65145,-59.43068,AR,52949.0
1024,AR,ARG,Argentina,2019.0,Argentina,ARG,7.38,2.0,8.73,5.5,Mercedes,-29.18416,-58.07519,AR,30649.0
1025,AR,ARG,Argentina,2019.0,Argentina,ARG,7.38,2.0,8.73,5.5,Mar del Plata,-38.00228,-57.55754,AR,553935.0
1026,AR,ARG,Argentina,2019.0,Argentina,ARG,7.38,2.0,8.73,5.5,Lujan,-34.57028,-59.105,AR,81749.0
1027,AR,ARG,Argentina,2019.0,Argentina,ARG,7.38,2.0,8.73,5.5,La Plata,-34.92145,-57.95453,AR,694167.0
1028,AR,ARG,Argentina,2019.0,Argentina,ARG,7.38,2.0,8.73,5.5,La Paz,-30.74485,-59.64566,AR,24716.0
1029,AR,ARG,Argentina,2019.0,Argentina,ARG,7.38,2.0,8.73,5.5,Jardin America,-27.04346,-55.22698,AR,24905.0
1030,AR,ARG,Argentina,2019.0,Argentina,ARG,7.38,2.0,8.73,5.5,Gualeguaychu,-33.00937,-58.51722,AR,78676.0
1031,AR,ARG,Argentina,2019.0,Argentina,ARG,7.38,2.0,8.73,5.5,Gualeguay,-33.14156,-59.30966,AR,33120.0
1032,AR,ARG,Argentina,2019.0,Argentina,ARG,7.38,2.0,8.73,5.5,Goya,-29.14395,-59.2651,AR,70245.0
1033,AR,ARG,Argentina,2019.0,Argentina,ARG,7.38,2.0,8.73,5.5,Gobernador Ingeniero Valentin Virasoro,-28.05,-56.03333,AR,28756.0
1034,AR,ARG,Argentina,2019.0,Argentina,ARG,7.38,2.0,8.73,5.5,General Jose de San Martin,-26.53743,-59.34158,AR,31758.0
1035,AR,ARG,Argentina,2019.0,Argentina,ARG,7.38,2.0,8.73,5.5,Garupa,-27.48171,-55.82921,AR,28814.0
1036,AR,ARG,Argentina,2019.0,Argentina,ARG,7.38,2.0,8.73,5.5,Formosa,-26.17753,-58.17814,AR,221383.0
1037,AR,ARG,Argentina,2019.0,Argentina,ARG,7.38,2.0,8.73,5.5,Fontana,-27.41813,-59.02392,AR,26745.0
1038,AR,ARG,Argentina,2019.0,Argentina,ARG,7.38,2.0,8.73,5.5,Federal,-30.95465,-58.78326,AR,16333.0
1039,AR,ARG,Argentina,2019.0,Argentina,ARG,7.38,2.0,8.73,5.5,Esquina,-30.01444,-59.52719,AR,26399.0
1040,AR,ARG,Argentina,2019.0,Argentina,ARG,7.38,2.0,8.73,5.5,El Soberbio,-27.29847,-54.19877,AR,19571.0
1041,AR,ARG,Argentina,2019.0,Argentina,ARG,7.38,2.0,8.73,5.5,Dolores,-36.31321,-57.67918,AR,25190.0
1042,AR,ARG,Argentina,2019.0,Argentina,ARG,7.38,2.0,8.73,5.5,Curuzu Cuatia,-29.79171,-58.0546,AR,36390.0
1043,AR,ARG,Argentina,2019.0,Argentina,ARG,7.38,2.0,8.73,5.5,Corrientes,-27.4806,-58.8341,AR,339067.0
1044,AR,ARG,Argentina,2019.0,Argentina,ARG,7.38,2.0,8.73,5.5,Concordia,-31.39296,-58.02089,AR,145210.0
1045,AR,ARG,Argentina,2019.0,Argentina,ARG,7.38,2.0,8.73,5.5,Concepcion del Uruguay,-32.48249,-58.23722,AR,67895.0
1046,AR,ARG,Argentina,2019.0,Argentina,ARG,7.38,2.0,8.73,5.5,Colegiales,-34.57365,-58.44924,AR,57000.0
1047,AR,ARG,Argentina,2019.0,Argentina,ARG,7.38,2.0,8.73,5.5,Chajari,-30.75048,-57.97962,AR,30655.0
1048,AR,ARG,Argentina,2019.0,Argentina,ARG,7.38,2.0,8.73,5.5,Campana,-34.16874,-58.95914,AR,81612.0
1049,AR,ARG,Argentina,2019.0,Argentina,ARG,7.38,2.0,8.73,5.5,Buenos Aires,-34.61315,-58.37723,AR,13076300.0
1050,AR,ARG,Argentina,2019.0,Argentina,ARG,7.38,2.0,8.73,5.5,Barranqueras,-27.48132,-58.93925,AR,50823.0
1051,AR,ARG,Argentina,2019.0,Argentina,ARG,7.38,2.0,8.73,5.5,Azul,-36.77698,-59.85854,AR,53941.0
1052,AR,ARG,Argentina,2019.0,Argentina,ARG,7.38,2.0,8.73,5.5,Avellaneda,-29.11761,-59.65834,AR,23077.0
1053,AR,ARG,Argentina,2019.0,Argentina,ARG,7.38,2.0,8.73,5.5,Aristobulo del Valle,-27.09625,-54.89626,AR,20683.0
1054,AR,ARG,Argentina,2019.0,Argentina,ARG,7.38,2.0,8.73,5.5,Zapala,-38.89916,-70.05442,AR,31534.0
1055,AR,ARG,Argentina,2019.0,Argentina,ARG,7.38,2.0,8.73,5.5,Yerba Buena,-26.81667,-65.31667,AR,50783.0
1056,AR,ARG,Argentina,2019.0,Argentina,ARG,7.38,2.0,8.73,5.5,Villa Regina,-39.1,-67.06667,AR,31209.0
1057,AR,ARG,Argentina,2019.0,Argentina,ARG,7.38,2.0,8.73,5.5,Villa Paula de Sarmiento,-31.4933,-68.53838,AR,19092.0
1058,AR,ARG,Argentina,2019.0,Argentina,ARG,7.38,2.0,8.73,5.5,Villa Nueva,-32.43293,-63.24763,AR,16841.0
1059,AR,ARG,Argentina,2019.0,Argentina,ARG,7.38,2.0,8.73,5.5,Villa Maria,-32.40751,-63.24016,AR,92453.0
1060,AR,ARG,Argentina,2019.0,Argentina,ARG,7.38,2.0,8.73,5.5,Villa Dolores,-31.94585,-65.18958,AR,28009.0
1061,AR,ARG,Argentina,2019.0,Argentina,ARG,7.38,2.0,8.73,5.5,Villa Constitucion,-33.22778,-60.3297,AR,44271.0
1062,AR,ARG,Argentina,2019.0,Argentina,ARG,7.38,2.0,8.73,5.5,Villa Carlos Paz,-31.42414,-64.49778,AR,69451.0
1063,AR,ARG,Argentina,2019.0,Argentina,ARG,7.38,2.0,8.73,5.5,Villa Angela,-27.57383,-60.71526,AR,43511.0
1064,AR,ARG,Argentina,2019.0,Argentina,ARG,7.38,2.0,8.73,5.5,Villa Allende,-31.29458,-64.29538,AR,21683.0
1065,AR,ARG,Argentina,2019.0,Argentina,ARG,7.38,2.0,8.73,5.5,Viedma,-40.81345,-62.99668,AR,48940.0
1066,AR,ARG,Argentina,2019.0,Argentina,ARG,7.38,2.0,8.73,5.5,Victoria,-32.61841,-60.15478,AR,25139.0
1067,AR,ARG,Argentina,2019.0,Argentina,ARG,7.38,2.0,8.73,5.5,Vera,-29.4593,-60.21261,AR,19797.0
1068,AR,ARG,Argentina,2019.0,Argentina,ARG,7.38,2.0,8.73,5.5,Venado Tuerto,-33.74556,-61.96885,AR,72340.0
1069,AR,ARG,Argentina,2019.0,Argentina,ARG,7.38,2.0,8.73,5.5,Veinticinco de Mayo,-35.4323,-60.17271,AR,24668.0
1070,AR,ARG,Argentina,2019.0,Argentina,ARG,7.38,2.0,8.73,5.5,Ushuaia,-54.8,-68.3,AR,58028.0
1071,AR,ARG,Argentina,2019.0,Argentina,ARG,7.38,2.0,8.73,5.5,Unquillo,-31.23073,-64.31615,AR,15369.0
1072,AR,ARG,Argentina,2019.0,Argentina,ARG,7.38,2.0,8.73,5.5,Tres Isletas,-26.34067,-60.43207,AR,24747.0
1073,AR,ARG,Argentina,2019.0,Argentina,ARG,7.38,2.0,8.73,5.5,Tres Arroyos,-38.37394,-60.27978,AR,47136.0
1074,AR,ARG,Argentina,2019.0,Argentina,ARG,7.38,2.0,8.73,5.5,Trelew,-43.24895,-65.30505,AR,93442.0
1075,AR,ARG,Argentina,2019.0,Argentina,ARG,7.38,2.0,8.73,5.5,Termas de Rio Hondo,-27.49362,-64.85972,AR,27838.0
1076,AR,ARG,Argentina,2019.0,Argentina,ARG,7.38,2.0,8.73,5.5,Tartagal,-22.51637,-63.80131,AR,60819.0
1077,AR,ARG,Argentina,2019.0,Argentina,ARG,7.38,2.0,8.73,5.5,Tafi Viejo,-26.73201,-65.25921,AR,48459.0
1078,AR,ARG,Argentina,2019.0,Argentina,ARG,7.38,2.0,8.73,5.5,Sunchales,-30.94404,-61.56148,AR,18757.0
1079,AR,ARG,Argentina,2019.0,Argentina,ARG,7.38,2.0,8.73,5.5,Santo Tome,-31.66274,-60.7653,AR,59072.0
1080,AR,ARG,Argentina,2019.0,Argentina,ARG,7.38,2.0,8.73,5.5,Santiago del Estero,-27.79511,-64.26149,AR,354692.0
1081,AR,ARG,Argentina,2019.0,Argentina,ARG,7.38,2.0,8.73,5.5,Santa Rosa,-36.61667,-64.28333,AR,111424.0
1082,AR,ARG,Argentina,2019.0,Argentina,ARG,7.38,2.0,8.73,5.5,Santa Lucia,-31.53987,-68.49503,AR,43565.0
1083,AR,ARG,Argentina,2019.0,Argentina,ARG,7.38,2.0,8.73,5.5,Santa Fe de la Vera Cruz,-31.63333,-60.7,AR,489505.0
1084,AR,ARG,Argentina,2019.0,Argentina,ARG,7.38,2.0,8.73,5.5,San Salvador de Jujuy,-24.19457,-65.29712,AR,305891.0
1085,AR,ARG,Argentina,2019.0,Argentina,ARG,7.38,2.0,8.73,5.5,San Ramon de la Nueva Oran,-23.13705,-64.32426,AR,74059.0
1086,AR,ARG,Argentina,2019.0,Argentina,ARG,7.38,2.0,8.73,5.5,San Rafael,-34.61772,-68.33007,AR,109163.0
1087,AR,ARG,Argentina,2019.0,Argentina,ARG,7.38,2.0,8.73,5.5,San Pedro,-24.23127,-64.86614,AR,58430.0
1088,AR,ARG,Argentina,2019.0,Argentina,ARG,7.38,2.0,8.73,5.5,San Nicolas de los Arroyos,-33.33578,-60.22523,AR,127742.0
1089,AR,ARG,Argentina,2019.0,Argentina,ARG,7.38,2.0,8.73,5.5,San Miguel de Tucuman,-26.82414,-65.2226,AR,781023.0
1090,AR,ARG,Argentina,2019.0,Argentina,ARG,7.38,2.0,8.73,5.5,San Martin de los Andes,-40.15789,-71.35337,AR,23519.0
1091,AR,ARG,Argentina,2019.0,Argentina,ARG,7.38,2.0,8.73,5.5,San Martin,-33.08103,-68.46814,AR,82549.0
1092,AR,ARG,Argentina,2019.0,Argentina,ARG,7.38,2.0,8.73,5.5,San Luis,-33.29501,-66.33563,AR,183982.0
1093,AR,ARG,Argentina,2019.0,Argentina,ARG,7.38,2.0,8.73,5.5,San Justo,-30.78913,-60.59189,AR,21809.0
1094,AR,ARG,Argentina,2019.0,Argentina,ARG,7.38,2.0,8.73,5.5,San Juan,-31.5375,-68.53639,AR,447048.0
1095,AR,ARG,Argentina,2019.0,Argentina,ARG,7.38,2.0,8.73,5.5,San Jose de Jachal,-30.24057,-68.74693,AR,21018.0
1096,AR,ARG,Argentina,2019.0,Argentina,ARG,7.38,2.0,8.73,5.5,San Jorge,-31.89618,-61.85984,AR,16873.0
1097,AR,ARG,Argentina,2019.0,Argentina,ARG,7.38,2.0,8.73,5.5,San Francisco,-31.42797,-62.08266,AR,59062.0
1098,AR,ARG,Argentina,2019.0,Argentina,ARG,7.38,2.0,8.73,5.5,San Fernando del Valle de Catamarca,-28.46957,-65.78524,AR,188812.0
1099,AR,ARG,Argentina,2019.0,Argentina,ARG,7.38,2.0,8.73,5.5,San Antonio Oeste,-40.73193,-64.94769,AR,16966.0
1100,AR,ARG,Argentina,2019.0,Argentina,ARG,7.38,2.0,8.73,5.5,Salta,-24.7859,-65.41166,AR,512686.0
1101,AR,ARG,Argentina,2019.0,Argentina,ARG,7.38,2.0,8.73,5.5,Rufino,-34.26827,-62.71262,AR,18361.0
1102,AR,ARG,Argentina,2019.0,Argentina,ARG,7.38,2.0,8.73,5.5,Rosario,-32.94682,-60.63932,AR,1173533.0
1103,AR,ARG,Argentina,2019.0,Argentina,ARG,7.38,2.0,8.73,5.5,Rio Tercero,-32.17301,-64.11405,AR,53389.0
1104,AR,ARG,Argentina,2019.0,Argentina,ARG,7.38,2.0,8.73,5.5,Rio Segundo,-31.6526,-63.9099,AR,18155.0
1105,AR,ARG,Argentina,2019.0,Argentina,ARG,7.38,2.0,8.73,5.5,Rio Gallegos,-51.62261,-69.21813,AR,85700.0
1106,AR,ARG,Argentina,2019.0,Argentina,ARG,7.38,2.0,8.73,5.5,Rio Cuarto,-33.13067,-64.34992,AR,153757.0
1107,AR,ARG,Argentina,2019.0,Argentina,ARG,7.38,2.0,8.73,5.5,Rio Ceballos,-31.16486,-64.32241,AR,16632.0
1108,AR,ARG,Argentina,2019.0,Argentina,ARG,7.38,2.0,8.73,5.5,Rawson,-43.30016,-65.10228,AR,26335.0
1109,AR,ARG,Argentina,2019.0,Argentina,ARG,7.38,2.0,8.73,5.5,Rafaela,-31.25033,-61.4867,AR,88713.0
1110,AR,ARG,Argentina,2019.0,Argentina,ARG,7.38,2.0,8.73,5.5,Quitilipi,-26.86913,-60.21683,AR,32083.0
1111,AR,ARG,Argentina,2019.0,Argentina,ARG,7.38,2.0,8.73,5.5,Punta Alta,-38.87588,-62.07359,AR,57209.0
1112,AR,ARG,Argentina,2019.0,Argentina,ARG,7.38,2.0,8.73,5.5,Puerto Madryn,-42.7692,-65.03851,AR,64555.0
1113,AR,ARG,Argentina,2019.0,Argentina,ARG,7.38,2.0,8.73,5.5,Presidencia Roque Saenz Pena,-26.78522,-60.43876,AR,81879.0
1114,AR,ARG,Argentina,2019.0,Argentina,ARG,7.38,2.0,8.73,5.5,Pocito,-31.68333,-68.58333,AR,40969.0
1115,AR,ARG,Argentina,2019.0,Argentina,ARG,7.38,2.0,8.73,5.5,Plottier,-38.96667,-68.23333,AR,25186.0
1116,AR,ARG,Argentina,2019.0,Argentina,ARG,7.38,2.0,8.73,5.5,Pergamino,-33.88995,-60.57357,AR,87652.0
1117,AR,ARG,Argentina,2019.0,Argentina,ARG,7.38,2.0,8.73,5.5,Perez,-32.99835,-60.76791,AR,24436.0
1118,AR,ARG,Argentina,2019.0,Argentina,ARG,7.38,2.0,8.73,5.5,Parana,-31.73197,-60.5238,AR,262295.0
1119,AR,ARG,Argentina,2019.0,Argentina,ARG,7.38,2.0,8.73,5.5,Palpala,-24.25647,-65.21163,AR,48199.0
1120,AR,ARG,Argentina,2019.0,Argentina,ARG,7.38,2.0,8.73,5.5,Olavarria,-36.89272,-60.32254,AR,86320.0
1121,AR,ARG,Argentina,2019.0,Argentina,ARG,7.38,2.0,8.73,5.5,Nueve de Julio,-35.44437,-60.88313,AR,34718.0
1122,AR,ARG,Argentina,2019.0,Argentina,ARG,7.38,2.0,8.73,5.5,Neuquen,-38.95161,-68.0591,AR,242092.0
1123,AR,ARG,Argentina,2019.0,Argentina,ARG,7.38,2.0,8.73,5.5,Morteros,-30.71164,-61.99862,AR,15129.0
1124,AR,ARG,Argentina,2019.0,Argentina,ARG,7.38,2.0,8.73,5.5,Monteros,-27.16741,-65.49832,AR,23771.0
1125,AR,ARG,Argentina,2019.0,Argentina,ARG,7.38,2.0,8.73,5.5,Mendoza,-32.89084,-68.82717,AR,876884.0
1126,AR,ARG,Argentina,2019.0,Argentina,ARG,7.38,2.0,8.73,5.5,Marcos Juarez,-32.6978,-62.10672,AR,24226.0
1127,AR,ARG,Argentina,2019.0,Argentina,ARG,7.38,2.0,8.73,5.5,Machagai,-26.92614,-60.04955,AR,28070.0
1128,AR,ARG,Argentina,2019.0,Argentina,ARG,7.38,2.0,8.73,5.5,Lincoln,-34.86649,-61.5302,AR,41808.0
1129,AR,ARG,Argentina,2019.0,Argentina,ARG,7.38,2.0,8.73,5.5,Libertador General San Martin,-23.80644,-64.78757,AR,49267.0
1130,AR,ARG,Argentina,2019.0,Argentina,ARG,7.38,2.0,8.73,5.5,Las Brenas,-27.08966,-61.08161,AR,26955.0
1131,AR,ARG,Argentina,2019.0,Argentina,ARG,7.38,2.0,8.73,5.5,La Rioja,-29.41105,-66.85067,AR,162620.0
1132,AR,ARG,Argentina,2019.0,Argentina,ARG,7.38,2.0,8.73,5.5,La Falda,-31.08841,-64.48987,AR,15112.0
1133,AR,ARG,Argentina,2019.0,Argentina,ARG,7.38,2.0,8.73,5.5,La Calera,-31.34377,-64.33529,AR,24796.0
1134,AR,ARG,Argentina,2019.0,Argentina,ARG,7.38,2.0,8.73,5.5,Laboulaye,-34.12662,-63.39119,AR,19908.0
1135,AR,ARG,Argentina,2019.0,Argentina,ARG,7.38,2.0,8.73,5.5,Junin,-34.58382,-60.94332,AR,85007.0
1136,AR,ARG,Argentina,2019.0,Argentina,ARG,7.38,2.0,8.73,5.5,Joaquin V. Gonzalez,-25.08333,-64.18333,AR,19185.0
1137,AR,ARG,Argentina,2019.0,Argentina,ARG,7.38,2.0,8.73,5.5,Jesus Maria,-30.98153,-64.09424,AR,26825.0
1138,AR,ARG,Argentina,2019.0,Argentina,ARG,7.38,2.0,8.73,5.5,Granadero Baigorria,-32.85683,-60.71754,AR,32427.0
1139,AR,ARG,Argentina,2019.0,Argentina,ARG,7.38,2.0,8.73,5.5,Gobernador Galvez,-33.03016,-60.64045,AR,74650.0
1140,AR,ARG,Argentina,2019.0,Argentina,ARG,7.38,2.0,8.73,5.5,General Villegas,-35.03285,-63.01252,AR,16270.0
1141,AR,ARG,Argentina,2019.0,Argentina,ARG,7.38,2.0,8.73,5.5,General Roca,-39.03333,-67.58333,AR,73212.0
1142,AR,ARG,Argentina,2019.0,Argentina,ARG,7.38,2.0,8.73,5.5,General Pinedo,-27.31667,-61.28333,AR,15741.0
1143,AR,ARG,Argentina,2019.0,Argentina,ARG,7.38,2.0,8.73,5.5,General Pico,-35.65662,-63.75682,AR,57029.0
1144,AR,ARG,Argentina,2019.0,Argentina,ARG,7.38,2.0,8.73,5.5,General Enrique Mosconi,-22.59588,-63.81255,AR,19811.0
1145,AR,ARG,Argentina,2019.0,Argentina,ARG,7.38,2.0,8.73,5.5,Galvez,-32.02927,-61.22103,AR,18374.0
1146,AR,ARG,Argentina,2019.0,Argentina,ARG,7.38,2.0,8.73,5.5,Firmat,-33.45937,-61.4832,AR,18294.0
1147,AR,ARG,Argentina,2019.0,Argentina,ARG,7.38,2.0,8.73,5.5,Famailla,-27.05413,-65.40329,AR,30951.0
1148,AR,ARG,Argentina,2019.0,Argentina,ARG,7.38,2.0,8.73,5.5,Esquel,-42.91147,-71.31947,AR,28486.0
1149,AR,ARG,Argentina,2019.0,Argentina,ARG,7.38,2.0,8.73,5.5,Esperanza,-31.4488,-60.93173,AR,35885.0
1150,AR,ARG,Argentina,2019.0,Argentina,ARG,7.38,2.0,8.73,5.5,Embarcacion,-23.21003,-64.09965,AR,23961.0
1151,AR,ARG,Argentina,2019.0,Argentina,ARG,7.38,2.0,8.73,5.5,Embalse,-32.18,-64.41809,AR,15900.0
1152,AR,ARG,Argentina,2019.0,Argentina,ARG,7.38,2.0,8.73,5.5,El Bolson,-41.96051,-71.53336,AR,15537.0
1153,AR,ARG,Argentina,2019.0,Argentina,ARG,7.38,2.0,8.73,5.5,Diamante,-32.06641,-60.63837,AR,19545.0
1154,AR,ARG,Argentina,2019.0,Argentina,ARG,7.38,2.0,8.73,5.5,Dean Funes,-30.42036,-64.34984,AR,20164.0
1155,AR,ARG,Argentina,2019.0,Argentina,ARG,7.38,2.0,8.73,5.5,Cutral-Co,-38.93424,-69.23052,AR,47380.0
1156,AR,ARG,Argentina,2019.0,Argentina,ARG,7.38,2.0,8.73,5.5,Cruz del Eje,-30.72644,-64.80387,AR,28166.0
1157,AR,ARG,Argentina,2019.0,Argentina,ARG,7.38,2.0,8.73,5.5,Crespo,-32.02873,-60.30658,AR,18296.0
1158,AR,ARG,Argentina,2019.0,Argentina,ARG,7.38,2.0,8.73,5.5,Cosquin,-31.24508,-64.46563,AR,19070.0
1159,AR,ARG,Argentina,2019.0,Argentina,ARG,7.38,2.0,8.73,5.5,Coronel Suarez,-37.45467,-61.93343,AR,27000.0
1160,AR,ARG,Argentina,2019.0,Argentina,ARG,7.38,2.0,8.73,5.5,Coronda,-31.97263,-60.91983,AR,16975.0
1161,AR,ARG,Argentina,2019.0,Argentina,ARG,7.38,2.0,8.73,5.5,Cordoba,-31.4135,-64.18105,AR,1428214.0
1162,AR,ARG,Argentina,2019.0,Argentina,ARG,7.38,2.0,8.73,5.5,Comodoro Rivadavia,-45.86413,-67.49656,AR,140850.0
1163,AR,ARG,Argentina,2019.0,Argentina,ARG,7.38,2.0,8.73,5.5,Cipolletti,-38.93392,-67.99032,AR,75078.0
1164,AR,ARG,Argentina,2019.0,Argentina,ARG,7.38,2.0,8.73,5.5,Cinco Saltos,-38.82225,-68.06293,AR,19819.0
1165,AR,ARG,Argentina,2019.0,Argentina,ARG,7.38,2.0,8.73,5.5,Chivilcoy,-34.89566,-60.01667,AR,54514.0
1166,AR,ARG,Argentina,2019.0,Argentina,ARG,7.38,2.0,8.73,5.5,Chimbas,-31.48333,-68.53333,AR,73829.0
1167,AR,ARG,Argentina,2019.0,Argentina,ARG,7.38,2.0,8.73,5.5,Chilecito,-29.16195,-67.4974,AR,42248.0
1168,AR,ARG,Argentina,2019.0,Argentina,ARG,7.38,2.0,8.73,5.5,Charata,-27.21438,-61.18795,AR,27813.0
1169,AR,ARG,Argentina,2019.0,Argentina,ARG,7.38,2.0,8.73,5.5,Chacabuco,-34.64167,-60.47389,AR,34587.0
1170,AR,ARG,Argentina,2019.0,Argentina,ARG,7.38,2.0,8.73,5.5,Centenario,-38.82955,-68.1318,AR,28956.0
1171,AR,ARG,Argentina,2019.0,Argentina,ARG,7.38,2.0,8.73,5.5,Caucete,-31.65179,-68.28105,AR,33609.0
1172,AR,ARG,Argentina,2019.0,Argentina,ARG,7.38,2.0,8.73,5.5,Catriel,-37.87907,-67.7956,AR,15169.0
1173,AR,ARG,Argentina,2019.0,Argentina,ARG,7.38,2.0,8.73,5.5,Castelli,-25.94679,-60.61947,AR,36588.0
1174,AR,ARG,Argentina,2019.0,Argentina,ARG,7.38,2.0,8.73,5.5,Casilda,-33.04417,-61.16806,AR,32002.0
1175,AR,ARG,Argentina,2019.0,Argentina,ARG,7.38,2.0,8.73,5.5,Carcarana,-32.85679,-61.15331,AR,15619.0
1176,AR,ARG,Argentina,2019.0,Argentina,ARG,7.38,2.0,8.73,5.5,Capitan Bermudez,-32.82262,-60.71852,AR,27060.0
1177,AR,ARG,Argentina,2019.0,Argentina,ARG,7.38,2.0,8.73,5.5,Canada de Gomez,-32.81636,-61.39493,AR,36000.0
1178,AR,ARG,Argentina,2019.0,Argentina,ARG,7.38,2.0,8.73,5.5,Caleta Olivia,-46.43929,-67.52814,AR,36077.0
1179,AR,ARG,Argentina,2019.0,Argentina,ARG,7.38,2.0,8.73,5.5,Bell Ville,-32.62591,-62.68873,AR,35105.0
1180,AR,ARG,Argentina,2019.0,Argentina,ARG,7.38,2.0,8.73,5.5,Bella Vista,-27.03424,-65.30196,AR,15126.0
1181,AR,ARG,Argentina,2019.0,Argentina,ARG,7.38,2.0,8.73,5.5,Bahia Blanca,-38.71959,-62.27243,AR,276546.0
1182,AR,ARG,Argentina,2019.0,Argentina,ARG,7.38,2.0,8.73,5.5,Arroyo Seco,-33.15489,-60.50863,AR,20008.0
1183,AR,ARG,Argentina,2019.0,Argentina,ARG,7.38,2.0,8.73,5.5,Arroyito,-31.42022,-63.05002,AR,19577.0
1184,AR,ARG,Argentina,2019.0,Argentina,ARG,7.38,2.0,8.73,5.5,Anatuya,-28.46064,-62.83472,AR,20261.0
1185,AR,ARG,Argentina,2019.0,Argentina,ARG,7.38,2.0,8.73,5.5,Alta Gracia,-31.65292,-64.42826,AR,40384.0
1186,AR,ARG,Argentina,2019.0,Argentina,ARG,7.38,2.0,8.73,5.5,Allen,-38.97736,-67.82714,AR,26083.0
1187,AR,ARG,Argentina,2019.0,Argentina,ARG,7.38,2.0,8.73,5.5,Alderetes,-26.81667,-65.13333,AR,38466.0
1188,AR,ARG,Argentina,2019.0,Argentina,ARG,7.38,2.0,8.73,5.5,Albardon,-31.43722,-68.52556,AR,20413.0
1189,AR,ARG,Argentina,2019.0,Argentina,ARG,7.38,2.0,8.73,5.5,Aguilares,-27.4338,-65.61427,AR,32494.0
1190,AR,ARG,Argentina,2019.0,Argentina,ARG,7.38,2.0,8.73,5.5,Villa Santa Rita,-34.61082,-58.481,AR,34000.0
1191,AR,ARG,Argentina,2019.0,Argentina,ARG,7.38,2.0,8.73,5.5,Villa Mercedes,-33.67571,-65.45783,AR,96781.0
1192,AR,ARG,Argentina,2019.0,Argentina,ARG,7.38,2.0,8.73,5.5,San Carlos de Bariloche,-41.14557,-71.30822,AR,95394.0
1193,AR,ARG,Argentina,2019.0,Argentina,ARG,7.38,2.0,8.73,5.5,Adrogue,-34.80041,-58.38384,AR,28265.0
3449,AS,ASM,American Samoa,2019.0,American Samoa,,,0.0,,,Pago Pago,-14.27806,-170.7025,AS,11500.0
3450,AT,AUT,Austria,2019.0,Austria,AUT,8.67,1.0,9.25,7.86,Wolfsberg,46.84056,14.84417,AT,25610.0
3451,AT,AUT,Austria,2019.0,Austria,AUT,8.67,1.0,9.25,7.86,Wiener Neustadt,47.80485,16.23196,AT,38481.0
3452,AT,AUT,Austria,2019.0,Austria,AUT,8.67,1.0,9.25,7.86,Vienna,48.20849,16.37208,AT,1691468.0
3453,AT,AUT,Austria,2019.0,Austria,AUT,8.67,1.0,9.25,7.86,Wels,48.16667,14.03333,AT,57946.0
3454,AT,AUT,Austria,2019.0,Austria,AUT,8.67,1.0,9.25,7.86,Weinzierl bei Krems,48.4,15.6,AT,24092.0
3455,AT,AUT,Austria,2019.0,Austria,AUT,8.67,1.0,9.25,7.86,Villach,46.61028,13.85583,AT,58882.0
3456,AT,AUT,Austria,2019.0,Austria,AUT,8.67,1.0,9.25,7.86,Traun,48.22656,14.23459,AT,23959.0
3457,AT,AUT,Austria,2019.0,Austria,AUT,8.67,1.0,9.25,7.86,Traiskirchen,48.01485,16.29324,AT,16212.0
3458,AT,AUT,Austria,2019.0,Austria,AUT,8.67,1.0,9.25,7.86,Ternitz,47.71565,16.03575,AT,15153.0
3459,AT,AUT,Austria,2019.0,Austria,AUT,8.67,1.0,9.25,7.86,Steyr,48.04274,14.42127,AT,39566.0
3460,AT,AUT,Austria,2019.0,Austria,AUT,8.67,1.0,9.25,7.86,Spittal an der Drau,46.8,13.5,AT,16363.0
3461,AT,AUT,Austria,2019.0,Austria,AUT,8.67,1.0,9.25,7.86,Schwechat,48.13333,16.46667,AT,15711.0
3462,AT,AUT,Austria,2019.0,Austria,AUT,8.67,1.0,9.25,7.86,Sankt Poelten,48.2,15.63333,AT,49001.0
3463,AT,AUT,Austria,2019.0,Austria,AUT,8.67,1.0,9.25,7.86,Salzburg,47.79941,13.04399,AT,150269.0
3464,AT,AUT,Austria,2019.0,Austria,AUT,8.67,1.0,9.25,7.86,Saalfelden am Steinernen Meer,47.42681,12.848,AT,16119.0
3465,AT,AUT,Austria,2019.0,Austria,AUT,8.67,1.0,9.25,7.86,Modling,48.08605,16.28921,AT,20710.0
3466,AT,AUT,Austria,2019.0,Austria,AUT,8.67,1.0,9.25,7.86,Lustenau,47.42642,9.65851,AT,20218.0
3467,AT,AUT,Austria,2019.0,Austria,AUT,8.67,1.0,9.25,7.86,Linz,48.30639,14.28611,AT,181162.0
3468,AT,AUT,Austria,2019.0,Austria,AUT,8.67,1.0,9.25,7.86,Leonding,48.27965,14.2533,AT,22736.0
3469,AT,AUT,Austria,2019.0,Austria,AUT,8.67,1.0,9.25,7.86,Leoben,47.3765,15.09144,AT,24809.0
3470,AT,AUT,Austria,2019.0,Austria,AUT,8.67,1.0,9.25,7.86,Kufstein,47.58333,12.16667,AT,16115.0
3471,AT,AUT,Austria,2019.0,Austria,AUT,8.67,1.0,9.25,7.86,Krems an der Donau,48.40921,15.61415,AT,23932.0
3472,AT,AUT,Austria,2019.0,Austria,AUT,8.67,1.0,9.25,7.86,Klosterneuburg,48.30521,16.32522,AT,24843.0
3473,AT,AUT,Austria,2019.0,Austria,AUT,8.67,1.0,9.25,7.86,Klagenfurt am Woerthersee,46.62472,14.30528,AT,90610.0
3474,AT,AUT,Austria,2019.0,Austria,AUT,8.67,1.0,9.25,7.86,Kapfenberg,47.44458,15.29331,AT,21819.0
3475,AT,AUT,Austria,2019.0,Austria,AUT,8.67,1.0,9.25,7.86,Innsbruck,47.26266,11.39454,AT,112467.0
3476,AT,AUT,Austria,2019.0,Austria,AUT,8.67,1.0,9.25,7.86,Hallein,47.68333,13.1,AT,18980.0
3477,AT,AUT,Austria,2019.0,Austria,AUT,8.67,1.0,9.25,7.86,Graz,47.06667,15.45,AT,222326.0
3478,AT,AUT,Austria,2019.0,Austria,AUT,8.67,1.0,9.25,7.86,Feldkirch,47.23306,9.6,AT,31082.0
3479,AT,AUT,Austria,2019.0,Austria,AUT,8.67,1.0,9.25,7.86,Dornbirn,47.41427,9.74195,AT,43013.0
3480,AT,AUT,Austria,2019.0,Austria,AUT,8.67,1.0,9.25,7.86,Bregenz,47.50311,9.7471,AT,27611.0
3481,AT,AUT,Austria,2019.0,Austria,AUT,8.67,1.0,9.25,7.86,Braunau am Inn,48.25628,13.04343,AT,16403.0
3482,AT,AUT,Austria,2019.0,Austria,AUT,8.67,1.0,9.25,7.86,Baden,48.00543,16.23264,AT,24893.0
3483,AT,AUT,Austria,2019.0,Austria,AUT,8.67,1.0,9.25,7.86,Amstetten,48.1229,14.87206,AT,22832.0
3484,AT,AUT,Austria,2019.0,Austria,AUT,8.67,1.0,9.25,7.86,Ansfelden,47.965,13.04944,AT,15673.0
3870,AU,AUS,Australia,2019.0,Australia,AUS,8.84,1.0,9.3,8.2,Whyalla,-33.03268,137.56483,AU,19645.0
3871,AU,AUS,Australia,2019.0,Australia,AUS,8.84,1.0,9.3,8.2,Rockingham,-32.27682,115.72978,AU,108022.0
3872,AU,AUS,Australia,2019.0,Australia,AUS,8.84,1.0,9.3,8.2,Prospect,-34.88241,138.5933,AU,20217.0
3873,AU,AUS,Australia,2019.0,Australia,AUS,8.84,1.0,9.3,8.2,Port Hedland,-20.31215,118.61059,AU,15044.0
3874,AU,AUS,Australia,2019.0,Australia,AUS,8.84,1.0,9.3,8.2,Perth,-31.95224,115.8614,AU,1896548.0
3875,AU,AUS,Australia,2019.0,Australia,AUS,8.84,1.0,9.3,8.2,Murray Bridge,-35.11986,139.27345,AU,19577.0
3876,AU,AUS,Australia,2019.0,Australia,AUS,8.84,1.0,9.3,8.2,Mount Isa,-20.72523,139.49727,AU,22785.0
3877,AU,AUS,Australia,2019.0,Australia,AUS,8.84,1.0,9.3,8.2,Morphett Vale,-35.13333,138.51667,AU,22602.0
3878,AU,AUS,Australia,2019.0,Australia,AUS,8.84,1.0,9.3,8.2,Mandurah,-32.5269,115.7217,AU,83294.0
3879,AU,AUS,Australia,2019.0,Australia,AUS,8.84,1.0,9.3,8.2,Kwinana,-32.23013,115.78128,AU,30433.0
3880,AU,AUS,Australia,2019.0,Australia,AUS,8.84,1.0,9.3,8.2,Kalgoorlie,-30.74614,121.4742,AU,31107.0
3881,AU,AUS,Australia,2019.0,Australia,AUS,8.84,1.0,9.3,8.2,Gosnells,-32.081,116.0054,AU,17277.0
3882,AU,AUS,Australia,2019.0,Australia,AUS,8.84,1.0,9.3,8.2,Geraldton,-28.77897,114.61459,AU,26872.0
3883,AU,AUS,Australia,2019.0,Australia,AUS,8.84,1.0,9.3,8.2,Gawler,-34.60251,138.74902,AU,20006.0
3884,AU,AUS,Australia,2019.0,Australia,AUS,8.84,1.0,9.3,8.2,Fremantle,-32.05632,115.74557,AU,24835.0
3885,AU,AUS,Australia,2019.0,Australia,AUS,8.84,1.0,9.3,8.2,Darwin,-12.46113,130.84185,AU,129062.0
3886,AU,AUS,Australia,2019.0,Australia,AUS,8.84,1.0,9.3,8.2,Busselton,-33.65249,115.3455,AU,21898.0
3887,AU,AUS,Australia,2019.0,Australia,AUS,8.84,1.0,9.3,8.2,Bunbury,-33.32711,115.64137,AU,68248.0
3888,AU,AUS,Australia,2019.0,Australia,AUS,8.84,1.0,9.3,8.2,Armadale,-32.14607,116.0093,AU,62296.0
3889,AU,AUS,Australia,2019.0,Australia,AUS,8.84,1.0,9.3,8.2,Alice Springs,-23.69748,133.88362,AU,25186.0
3890,AU,AUS,Australia,2019.0,Australia,AUS,8.84,1.0,9.3,8.2,Albany,-35.02692,117.88369,AU,33650.0
3891,AU,AUS,Australia,2019.0,Australia,AUS,8.84,1.0,9.3,8.2,Adelaide,-34.92866,138.59863,AU,1225235.0
3892,AU,AUS,Australia,2019.0,Australia,AUS,8.84,1.0,9.3,8.2,Woodridge,-27.63333,153.1,AU,20650.0
3893,AU,AUS,Australia,2019.0,Australia,AUS,8.84,1.0,9.3,8.2,Wodonga,-36.12179,146.88809,AU,31605.0
3894,AU,AUS,Australia,2019.0,Australia,AUS,8.84,1.0,9.3,8.2,Werribee,-37.9,144.66667,AU,37737.0
3895,AU,AUS,Australia,2019.0,Australia,AUS,8.84,1.0,9.3,8.2,Warrnambool,-38.38176,142.48799,AU,33982.0
3896,AU,AUS,Australia,2019.0,Australia,AUS,8.84,1.0,9.3,8.2,Wantirna South,-37.88333,145.21667,AU,17477.0
3897,AU,AUS,Australia,2019.0,Australia,AUS,8.84,1.0,9.3,8.2,Wangaratta,-36.35846,146.32056,AU,16845.0
3898,AU,AUS,Australia,2019.0,Australia,AUS,8.84,1.0,9.3,8.2,Wagga Wagga,-35.12577,147.35375,AU,46913.0
3899,AU,AUS,Australia,2019.0,Australia,AUS,8.84,1.0,9.3,8.2,Traralgon,-38.19528,146.5415,AU,21960.0
3900,AU,AUS,Australia,2019.0,Australia,AUS,8.84,1.0,9.3,8.2,Townsville,-19.26639,146.80569,AU,196219.0
3901,AU,AUS,Australia,2019.0,Australia,AUS,8.84,1.0,9.3,8.2,Toowoomba,-27.56056,151.95386,AU,131258.0
3902,AU,AUS,Australia,2019.0,Australia,AUS,8.84,1.0,9.3,8.2,Thornbury,-37.75,145.0,AU,17434.0
3903,AU,AUS,Australia,2019.0,Australia,AUS,8.84,1.0,9.3,8.2,Thomastown,-37.68333,145.01667,AU,20331.0
3904,AU,AUS,Australia,2019.0,Australia,AUS,8.84,1.0,9.3,8.2,Tarneit,-37.86667,144.66667,AU,21690.0
3905,AU,AUS,Australia,2019.0,Australia,AUS,8.84,1.0,9.3,8.2,Taree,-31.91099,152.45387,AU,16621.0
3906,AU,AUS,Australia,2019.0,Australia,AUS,8.84,1.0,9.3,8.2,Tamworth,-31.09048,150.92905,AU,47597.0
3907,AU,AUS,Australia,2019.0,Australia,AUS,8.84,1.0,9.3,8.2,Sydney,-33.86785,151.20732,AU,4627345.0
3908,AU,AUS,Australia,2019.0,Australia,AUS,8.84,1.0,9.3,8.2,Surfers Paradise,-28.00274,153.42999,AU,18501.0
3909,AU,AUS,Australia,2019.0,Australia,AUS,8.84,1.0,9.3,8.2,Sunnybank,-27.58333,153.05,AU,16442.0
3910,AU,AUS,Australia,2019.0,Australia,AUS,8.84,1.0,9.3,8.2,Sunbury,-37.57742,144.72607,AU,29925.0
3911,AU,AUS,Australia,2019.0,Australia,AUS,8.84,1.0,9.3,8.2,Port Stephens,-32.71314,152.06623,AU,27531.0
3912,AU,AUS,Australia,2019.0,Australia,AUS,8.84,1.0,9.3,8.2,Springvale,-37.94853,145.15274,AU,19771.0
3913,AU,AUS,Australia,2019.0,Australia,AUS,8.84,1.0,9.3,8.2,Southport,-27.96724,153.39796,AU,28315.0
3914,AU,AUS,Australia,2019.0,Australia,AUS,8.84,1.0,9.3,8.2,South Grafton,-29.7076,152.92627,AU,16399.0
3915,AU,AUS,Australia,2019.0,Australia,AUS,8.84,1.0,9.3,8.2,Shepparton,-36.38047,145.39867,AU,38773.0
3916,AU,AUS,Australia,2019.0,Australia,AUS,8.84,1.0,9.3,8.2,Seaford,-38.1,145.13333,AU,16033.0
3917,AU,AUS,Australia,2019.0,Australia,AUS,8.84,1.0,9.3,8.2,Saint Kilda,-37.8676,144.98099,AU,17795.0
3918,AU,AUS,Australia,2019.0,Australia,AUS,8.84,1.0,9.3,8.2,Saint Albans,-37.73333,144.8,AU,35091.0
3919,AU,AUS,Australia,2019.0,Australia,AUS,8.84,1.0,9.3,8.2,Rowville,-37.93333,145.23333,AU,34145.0
3920,AU,AUS,Australia,2019.0,Australia,AUS,8.84,1.0,9.3,8.2,Rockhampton,-23.38032,150.50595,AU,61724.0
3921,AU,AUS,Australia,2019.0,Australia,AUS,8.84,1.0,9.3,8.2,Richmond,-37.81819,145.00176,AU,26121.0
3922,AU,AUS,Australia,2019.0,Australia,AUS,8.84,1.0,9.3,8.2,Reservoir,-37.71667,145.0,AU,47637.0
3923,AU,AUS,Australia,2019.0,Australia,AUS,8.84,1.0,9.3,8.2,Queanbeyan,-35.35493,149.232,AU,40661.0
3924,AU,AUS,Australia,2019.0,Australia,AUS,8.84,1.0,9.3,8.2,Quakers Hill,-33.73333,150.88333,AU,25017.0
3925,AU,AUS,Australia,2019.0,Australia,AUS,8.84,1.0,9.3,8.2,Preston,-37.75,145.01667,AU,29925.0
3926,AU,AUS,Australia,2019.0,Australia,AUS,8.84,1.0,9.3,8.2,Port Macquarie,-31.43084,152.90894,AU,41491.0
3927,AU,AUS,Australia,2019.0,Australia,AUS,8.84,1.0,9.3,8.2,Point Cook,-37.91482,144.75088,AU,32413.0
3928,AU,AUS,Australia,2019.0,Australia,AUS,8.84,1.0,9.3,8.2,Pakenham South,-38.13333,145.51667,AU,32911.0
3929,AU,AUS,Australia,2019.0,Australia,AUS,8.84,1.0,9.3,8.2,Orange,-33.28397,149.10018,AU,39329.0
3930,AU,AUS,Australia,2019.0,Australia,AUS,8.84,1.0,9.3,8.2,Nowra,-34.88422,150.60036,AU,34479.0
3931,AU,AUS,Australia,2019.0,Australia,AUS,8.84,1.0,9.3,8.2,Northcote,-37.76667,145.0,AU,22920.0
3932,AU,AUS,Australia,2019.0,Australia,AUS,8.84,1.0,9.3,8.2,Noble Park,-37.96667,145.16667,AU,28377.0
3933,AU,AUS,Australia,2019.0,Australia,AUS,8.84,1.0,9.3,8.2,Newcastle,-32.92715,151.77647,AU,308308.0
3934,AU,AUS,Australia,2019.0,Australia,AUS,8.84,1.0,9.3,8.2,Nerang,-27.98941,153.33633,AU,16256.0
3935,AU,AUS,Australia,2019.0,Australia,AUS,8.84,1.0,9.3,8.2,Narre Warren,-38.03333,145.3,AU,25882.0
3936,AU,AUS,Australia,2019.0,Australia,AUS,8.84,1.0,9.3,8.2,Narangba,-27.20338,152.95923,AU,16223.0
3937,AU,AUS,Australia,2019.0,Australia,AUS,8.84,1.0,9.3,8.2,Mulgrave,-37.91667,145.2,AU,17647.0
3938,AU,AUS,Australia,2019.0,Australia,AUS,8.84,1.0,9.3,8.2,Mount Martha,-38.26667,145.01667,AU,17087.0
3939,AU,AUS,Australia,2019.0,Australia,AUS,8.84,1.0,9.3,8.2,Mount Gambier,-37.8318,140.77919,AU,23209.0
3940,AU,AUS,Australia,2019.0,Australia,AUS,8.84,1.0,9.3,8.2,Mount Eliza,-38.18333,145.08333,AU,17248.0
3941,AU,AUS,Australia,2019.0,Australia,AUS,8.84,1.0,9.3,8.2,Mosman,-33.83902,151.23956,AU,26236.0
3942,AU,AUS,Australia,2019.0,Australia,AUS,8.84,1.0,9.3,8.2,Mornington,-38.21792,145.03876,AU,22421.0
3943,AU,AUS,Australia,2019.0,Australia,AUS,8.84,1.0,9.3,8.2,Morayfield,-27.10876,152.94907,AU,18020.0
3944,AU,AUS,Australia,2019.0,Australia,AUS,8.84,1.0,9.3,8.2,Moe,-38.17828,146.26099,AU,15582.0
3945,AU,AUS,Australia,2019.0,Australia,AUS,8.84,1.0,9.3,8.2,Mill Park,-37.66667,145.06667,AU,30517.0
3946,AU,AUS,Australia,2019.0,Australia,AUS,8.84,1.0,9.3,8.2,Mildura,-34.18551,142.16251,AU,30016.0
3947,AU,AUS,Australia,2019.0,Australia,AUS,8.84,1.0,9.3,8.2,Melton,-37.68339,144.58543,AU,35490.0
3948,AU,AUS,Australia,2019.0,Australia,AUS,8.84,1.0,9.3,8.2,Melbourne,-37.814,144.96332,AU,4246375.0
3949,AU,AUS,Australia,2019.0,Australia,AUS,8.84,1.0,9.3,8.2,Maryborough,-25.54073,152.70493,AU,21501.0
3950,AU,AUS,Australia,2019.0,Australia,AUS,8.84,1.0,9.3,8.2,Marrickville,-33.90318,151.15176,AU,23161.0
3951,AU,AUS,Australia,2019.0,Australia,AUS,8.84,1.0,9.3,8.2,Maroubra,-33.95,151.23333,AU,26538.0
3952,AU,AUS,Australia,2019.0,Australia,AUS,8.84,1.0,9.3,8.2,Maitland,-32.73308,151.5574,AU,67132.0
3953,AU,AUS,Australia,2019.0,Australia,AUS,8.84,1.0,9.3,8.2,Mackay,-21.15345,149.16554,AU,74219.0
3954,AU,AUS,Australia,2019.0,Australia,AUS,8.84,1.0,9.3,8.2,Liverpool,-33.9,150.93333,AU,21317.0
3955,AU,AUS,Australia,2019.0,Australia,AUS,8.84,1.0,9.3,8.2,Lismore,-28.81354,153.2773,AU,30086.0
3956,AU,AUS,Australia,2019.0,Australia,AUS,8.84,1.0,9.3,8.2,Lilydale,-37.75,145.35,AU,15649.0
3957,AU,AUS,Australia,2019.0,Australia,AUS,8.84,1.0,9.3,8.2,Launceston,-41.43876,147.13467,AU,106153.0
3958,AU,AUS,Australia,2019.0,Australia,AUS,8.84,1.0,9.3,8.2,Lara,-38.02388,144.40617,AU,15520.0
3959,AU,AUS,Australia,2019.0,Australia,AUS,8.84,1.0,9.3,8.2,Langwarrin,-38.16667,145.16667,AU,21371.0
3960,AU,AUS,Australia,2019.0,Australia,AUS,8.84,1.0,9.3,8.2,Lalor,-37.66667,145.01667,AU,19873.0
3961,AU,AUS,Australia,2019.0,Australia,AUS,8.84,1.0,9.3,8.2,Keysborough,-37.99116,145.17385,AU,22700.0
3962,AU,AUS,Australia,2019.0,Australia,AUS,8.84,1.0,9.3,8.2,Kew,-37.80639,145.03086,AU,23876.0
3963,AU,AUS,Australia,2019.0,Australia,AUS,8.84,1.0,9.3,8.2,Katoomba,-33.71977,150.30739,AU,18593.0
3964,AU,AUS,Australia,2019.0,Australia,AUS,8.84,1.0,9.3,8.2,Hornsby,-33.70244,151.09931,AU,19863.0
3965,AU,AUS,Australia,2019.0,Australia,AUS,8.84,1.0,9.3,8.2,Hobart,-42.87936,147.32941,AU,216656.0
3966,AU,AUS,Australia,2019.0,Australia,AUS,8.84,1.0,9.3,8.2,Hawthorn South,-37.8329,145.0367,AU,21177.0
3967,AU,AUS,Australia,2019.0,Australia,AUS,8.84,1.0,9.3,8.2,Hampton Park,-38.03333,145.25,AU,23767.0
3968,AU,AUS,Australia,2019.0,Australia,AUS,8.84,1.0,9.3,8.2,Griffith,-34.28853,146.05093,AU,15455.0
3969,AU,AUS,Australia,2019.0,Australia,AUS,8.84,1.0,9.3,8.2,Greensborough,-37.70462,145.10302,AU,20214.0
3970,AU,AUS,Australia,2019.0,Australia,AUS,8.84,1.0,9.3,8.2,Granville,-33.83333,151.01667,AU,22889.0
3971,AU,AUS,Australia,2019.0,Australia,AUS,8.84,1.0,9.3,8.2,Goulburn,-34.75155,149.72086,AU,20940.0
3972,AU,AUS,Australia,2019.0,Australia,AUS,8.84,1.0,9.3,8.2,Gold Coast,-28.00029,153.43088,AU,591473.0
3973,AU,AUS,Australia,2019.0,Australia,AUS,8.84,1.0,9.3,8.2,Glenroy,-37.7,144.93333,AU,19644.0
3974,AU,AUS,Australia,2019.0,Australia,AUS,8.84,1.0,9.3,8.2,Glenferrie,-37.83333,145.05,AU,21177.0
3975,AU,AUS,Australia,2019.0,Australia,AUS,8.84,1.0,9.3,8.2,Gladstone,-23.84852,151.25775,AU,30489.0
3976,AU,AUS,Australia,2019.0,Australia,AUS,8.84,1.0,9.3,8.2,Geelong,-38.14711,144.36069,AU,226034.0
3977,AU,AUS,Australia,2019.0,Australia,AUS,8.84,1.0,9.3,8.2,Frankston East,-38.13333,145.13333,AU,34457.0
3978,AU,AUS,Australia,2019.0,Australia,AUS,8.84,1.0,9.3,8.2,Frankston,-38.14458,145.12291,AU,34457.0
3979,AU,AUS,Australia,2019.0,Australia,AUS,8.84,1.0,9.3,8.2,Forster,-32.18136,152.51715,AU,17591.0
3980,AU,AUS,Australia,2019.0,Australia,AUS,8.84,1.0,9.3,8.2,Essendon,-37.76667,144.91667,AU,18852.0
3981,AU,AUS,Australia,2019.0,Australia,AUS,8.84,1.0,9.3,8.2,Epping,-37.65,145.03333,AU,32200.0
3982,AU,AUS,Australia,2019.0,Australia,AUS,8.84,1.0,9.3,8.2,Epping,-33.77271,151.08184,AU,18969.0
3983,AU,AUS,Australia,2019.0,Australia,AUS,8.84,1.0,9.3,8.2,Engadine,-34.06564,151.01266,AU,17937.0
3984,AU,AUS,Australia,2019.0,Australia,AUS,8.84,1.0,9.3,8.2,Eltham,-37.73333,145.15,AU,18162.0
3985,AU,AUS,Australia,2019.0,Australia,AUS,8.84,1.0,9.3,8.2,Echuca,-36.14057,144.75185,AU,19457.0
3986,AU,AUS,Australia,2019.0,Australia,AUS,8.84,1.0,9.3,8.2,Earlwood,-33.95,151.1,AU,16564.0
3987,AU,AUS,Australia,2019.0,Australia,AUS,8.84,1.0,9.3,8.2,Dubbo,-32.24295,148.60484,AU,32327.0
3988,AU,AUS,Australia,2019.0,Australia,AUS,8.84,1.0,9.3,8.2,Doncaster East,-37.78761,145.14888,AU,27047.0
3989,AU,AUS,Australia,2019.0,Australia,AUS,8.84,1.0,9.3,8.2,Doncaster,-37.78828,145.12373,AU,18359.0
3990,AU,AUS,Australia,2019.0,Australia,AUS,8.84,1.0,9.3,8.2,Devonport,-41.17695,146.35152,AU,19317.0
3991,AU,AUS,Australia,2019.0,Australia,AUS,8.84,1.0,9.3,8.2,Deer Park,-37.76667,144.78333,AU,16204.0
3992,AU,AUS,Australia,2019.0,Australia,AUS,8.84,1.0,9.3,8.2,Deception Bay,-27.19354,153.02631,AU,16090.0
3993,AU,AUS,Australia,2019.0,Australia,AUS,8.84,1.0,9.3,8.2,Dandenong,-37.98333,145.2,AU,24919.0
3994,AU,AUS,Australia,2019.0,Australia,AUS,8.84,1.0,9.3,8.2,Cronulla,-34.06251,151.14961,AU,16754.0
3995,AU,AUS,Australia,2019.0,Australia,AUS,8.84,1.0,9.3,8.2,Cranbourne,-38.1,145.28333,AU,39419.0
3996,AU,AUS,Australia,2019.0,Australia,AUS,8.84,1.0,9.3,8.2,Cranbourne,-38.11342,145.28326,AU,18622.0
3997,AU,AUS,Australia,2019.0,Australia,AUS,8.84,1.0,9.3,8.2,Craigieburn,-37.6,144.95,AU,19728.0
3998,AU,AUS,Australia,2019.0,Australia,AUS,8.84,1.0,9.3,8.2,Coffs Harbour,-30.29626,153.11351,AU,26353.0
3999,AU,AUS,Australia,2019.0,Australia,AUS,8.84,1.0,9.3,8.2,Coburg,-37.75,144.96667,AU,24977.0
4000,AU,AUS,Australia,2019.0,Australia,AUS,8.84,1.0,9.3,8.2,Clayton,-37.91667,145.11667,AU,15543.0
4001,AU,AUS,Australia,2019.0,Australia,AUS,8.84,1.0,9.3,8.2,Wollongong,-34.424,150.89345,AU,292190.0
4002,AU,AUS,Australia,2019.0,Australia,AUS,8.84,1.0,9.3,8.2,Cessnock,-32.83211,151.35623,AU,16393.0
4003,AU,AUS,Australia,2019.0,Australia,AUS,8.84,1.0,9.3,8.2,Castle Hill,-33.73333,151.0,AU,35389.0
4004,AU,AUS,Australia,2019.0,Australia,AUS,8.84,1.0,9.3,8.2,Carrum Downs,-38.09968,145.17248,AU,17213.0
4005,AU,AUS,Australia,2019.0,Australia,AUS,8.84,1.0,9.3,8.2,Carnegie,-37.88333,145.06667,AU,16299.0
4006,AU,AUS,Australia,2019.0,Australia,AUS,8.84,1.0,9.3,8.2,Carlingford,-33.78269,151.04888,AU,21364.0
4007,AU,AUS,Australia,2019.0,Australia,AUS,8.84,1.0,9.3,8.2,Caringbah,-34.04726,151.12051,AU,21283.0
4008,AU,AUS,Australia,2019.0,Australia,AUS,8.84,1.0,9.3,8.2,Canberra,-35.28346,149.12807,AU,367752.0
4009,AU,AUS,Australia,2019.0,Australia,AUS,8.84,1.0,9.3,8.2,Camberwell,-37.84205,145.0694,AU,19637.0
4010,AU,AUS,Australia,2019.0,Australia,AUS,8.84,1.0,9.3,8.2,Caloundra,-26.80346,153.12195,AU,38706.0
4011,AU,AUS,Australia,2019.0,Australia,AUS,8.84,1.0,9.3,8.2,Cairns,-16.92304,145.76625,AU,153075.0
4012,AU,AUS,Australia,2019.0,Australia,AUS,8.84,1.0,9.3,8.2,Caboolture,-27.08465,152.9511,AU,21478.0
4013,AU,AUS,Australia,2019.0,Australia,AUS,8.84,1.0,9.3,8.2,Burnie,-41.05584,145.90375,AU,19972.0
4014,AU,AUS,Australia,2019.0,Australia,AUS,8.84,1.0,9.3,8.2,Bundaberg,-24.86621,152.3479,AU,70826.0
4015,AU,AUS,Australia,2019.0,Australia,AUS,8.84,1.0,9.3,8.2,Buderim,-26.68443,153.05705,AU,15228.0
4016,AU,AUS,Australia,2019.0,Australia,AUS,8.84,1.0,9.3,8.2,Brunswick,-37.76667,144.96667,AU,19867.0
4017,AU,AUS,Australia,2019.0,Australia,AUS,8.84,1.0,9.3,8.2,Broken Hill,-31.9652,141.4512,AU,18430.0
4018,AU,AUS,Australia,2019.0,Australia,AUS,8.84,1.0,9.3,8.2,Brisbane,-27.46794,153.02809,AU,2189878.0
4019,AU,AUS,Australia,2019.0,Australia,AUS,8.84,1.0,9.3,8.2,Boronia,-37.86667,145.28333,AU,20825.0
4020,AU,AUS,Australia,2019.0,Australia,AUS,8.84,1.0,9.3,8.2,Blacktown,-33.76667,150.91667,AU,39000.0
4021,AU,AUS,Australia,2019.0,Australia,AUS,8.84,1.0,9.3,8.2,Berwick,-38.03333,145.35,AU,44779.0
4022,AU,AUS,Australia,2019.0,Australia,AUS,8.84,1.0,9.3,8.2,Bendigo,-36.75818,144.28024,AU,100617.0
4023,AU,AUS,Australia,2019.0,Australia,AUS,8.84,1.0,9.3,8.2,Baulkham Hills,-33.75881,150.99292,AU,33945.0
4024,AU,AUS,Australia,2019.0,Australia,AUS,8.84,1.0,9.3,8.2,Bathurst,-33.41665,149.5806,AU,33110.0
4025,AU,AUS,Australia,2019.0,Australia,AUS,8.84,1.0,9.3,8.2,Banora Point,-28.21298,153.53634,AU,27368.0
4026,AU,AUS,Australia,2019.0,Australia,AUS,8.84,1.0,9.3,8.2,Bankstown,-33.91667,151.03333,AU,30572.0
4027,AU,AUS,Australia,2019.0,Australia,AUS,8.84,1.0,9.3,8.2,Ballarat,-37.56622,143.84957,AU,97937.0
4028,AU,AUS,Australia,2019.0,Australia,AUS,8.84,1.0,9.3,8.2,Auburn,-33.85,151.03333,AU,33122.0
4029,AU,AUS,Australia,2019.0,Australia,AUS,8.84,1.0,9.3,8.2,Ashfield,-33.88834,151.12274,AU,22000.0
4030,AU,AUS,Australia,2019.0,Australia,AUS,8.84,1.0,9.3,8.2,Armidale,-30.50123,151.66553,AU,22673.0
4031,AU,AUS,Australia,2019.0,Australia,AUS,8.84,1.0,9.3,8.2,Albury,-36.07482,146.92401,AU,45627.0
4032,AU,AUS,Australia,2019.0,Australia,AUS,8.84,1.0,9.3,8.2,South Brisbane,-27.48034,153.02049,AU,60000.0
4033,AU,AUS,Australia,2019.0,Australia,AUS,8.84,1.0,9.3,8.2,Cheltenham,-37.96944,145.04806,AU,20292.0
4034,AU,AUS,Australia,2019.0,Australia,AUS,8.84,1.0,9.3,8.2,Randwick,-33.91439,151.24895,AU,25819.0
4035,AU,AUS,Australia,2019.0,Australia,AUS,8.84,1.0,9.3,8.2,Dee Why,-33.75,151.3,AU,17463.0
4036,AU,AUS,Australia,2019.0,Australia,AUS,8.84,1.0,9.3,8.2,Umina,-33.52314,151.31325,AU,16059.0
4037,AU,AUS,Australia,2019.0,Australia,AUS,8.84,1.0,9.3,8.2,Palmerston,-12.48602,130.9833,AU,25000.0
4038,AU,AUS,Australia,2019.0,Australia,AUS,8.84,1.0,9.3,8.2,Bracken Ridge,-27.3171,153.03097,AU,15355.0
4039,AU,AUS,Australia,2019.0,Australia,AUS,8.84,1.0,9.3,8.2,North Ryde,-33.79677,151.12436,AU,17208.0
4040,AU,AUS,Australia,2019.0,Australia,AUS,8.84,1.0,9.3,8.2,Hoppers Crossing,-37.88264,144.7003,AU,38108.0
4041,AU,AUS,Australia,2019.0,Australia,AUS,8.84,1.0,9.3,8.2,Logan City,-27.63917,153.10944,AU,282673.0
4042,AU,AUS,Australia,2019.0,Australia,AUS,8.84,1.0,9.3,8.2,Carindale,-27.50578,153.10236,AU,15135.0
4043,AU,AUS,Australia,2019.0,Australia,AUS,8.84,1.0,9.3,8.2,Parramatta,-33.8178,151.00348,AU,18448.0
4044,AU,AUS,Australia,2019.0,Australia,AUS,8.84,1.0,9.3,8.2,Ferntree Gully,-37.88461,145.29539,AU,24724.0
4045,AU,AUS,Australia,2019.0,Australia,AUS,8.84,1.0,9.3,8.2,City of Parramatta,-33.81667,151.0,AU,19745.0
4046,AU,AUS,Australia,2019.0,Australia,AUS,8.84,1.0,9.3,8.2,Adelaide Hills,-34.91119,138.70735,AU,60394.0
4047,AU,AUS,Australia,2019.0,Australia,AUS,8.84,1.0,9.3,8.2,Canning Vale,-32.05799,115.91814,AU,23289.0
4048,AU,AUS,Australia,2019.0,Australia,AUS,8.84,1.0,9.3,8.2,Glenmore Park,-33.79068,150.6693,AU,19200.0
4049,AU,AUS,Australia,2019.0,Australia,AUS,8.84,1.0,9.3,8.2,Glen Iris,-37.85995,145.05489,AU,23270.0
4050,AU,AUS,Australia,2019.0,Australia,AUS,8.84,1.0,9.3,8.2,Balwyn North,-37.79086,145.09386,AU,19968.0
4051,AU,AUS,Australia,2019.0,Australia,AUS,8.84,1.0,9.3,8.2,Malvern East,-37.87397,145.04253,AU,19593.0
4052,AU,AUS,Australia,2019.0,Australia,AUS,8.84,1.0,9.3,8.2,Brighton East,-37.90232,145.01734,AU,15167.0
4053,AU,AUS,Australia,2019.0,Australia,AUS,8.84,1.0,9.3,8.2,Booval,-27.61328,152.78944,AU,20540.0
4054,AU,AUS,Australia,2019.0,Australia,AUS,8.84,1.0,9.3,8.2,St Albans,-37.74496,144.80049,AU,33511.0
4055,AU,AUS,Australia,2019.0,Australia,AUS,8.84,1.0,9.3,8.2,Endeavour Hills,-37.97695,145.25866,AU,25000.0
4056,AU,AUS,Australia,2019.0,Australia,AUS,8.84,1.0,9.3,8.2,Taylors Lakes,-37.69863,144.78631,AU,16095.0
4057,AU,AUS,Australia,2019.0,Australia,AUS,8.84,1.0,9.3,8.2,Roxburgh Park,-37.62581,144.92555,AU,19235.0
4058,AU,AUS,Australia,2019.0,Australia,AUS,8.84,1.0,9.3,8.2,Wyndham Vale,-37.8415,144.54101,AU,17304.0
4059,AU,AUS,Australia,2019.0,Australia,AUS,8.84,1.0,9.3,8.2,Willetton,-32.05251,115.88782,AU,17243.0
4060,AU,AUS,Australia,2019.0,Australia,AUS,8.84,1.0,9.3,8.2,Thornlie,-32.06003,115.955,AU,22265.0
4061,AU,AUS,Australia,2019.0,Australia,AUS,8.84,1.0,9.3,8.2,Hillside,-37.69047,144.74172,AU,16326.0
4062,AU,AUS,Australia,2019.0,Australia,AUS,8.84,1.0,9.3,8.2,Bundoora,-37.69825,145.05967,AU,25709.0
4063,AU,AUS,Australia,2019.0,Australia,AUS,8.84,1.0,9.3,8.2,Forest Lake,-27.62563,152.96883,AU,22426.0
4064,AU,AUS,Australia,2019.0,Australia,AUS,8.84,1.0,9.3,8.2,Sunnybank Hills,-27.61025,153.05388,AU,16830.0
4065,AU,AUS,Australia,2019.0,Australia,AUS,8.84,1.0,9.3,8.2,Narre Warren South,-38.04369,145.2923,AU,28594.0
4066,AU,AUS,Australia,2019.0,Australia,AUS,8.84,1.0,9.3,8.2,Dandenong North,-37.96649,145.2081,AU,21910.0
4067,AU,AUS,Australia,2019.0,Australia,AUS,8.84,1.0,9.3,8.2,Frankston South,-38.16604,145.13643,AU,17360.0
4068,AU,AUS,Australia,2019.0,Australia,AUS,8.84,1.0,9.3,8.2,Sunshine West,-37.79117,144.81637,AU,16743.0
4069,AU,AUS,Australia,2019.0,Australia,AUS,8.84,1.0,9.3,8.2,Altona Meadows,-37.88413,144.78367,AU,18746.0
4070,AU,AUS,Australia,2019.0,Australia,AUS,8.84,1.0,9.3,8.2,West Pennant,-33.7457,151.04764,AU,15967.0
6282,AW,ABW,Aruba,2019.0,Aruba,,,0.0,,,Oranjestad,12.52398,-70.02703,AW,29998.0
6283,AX,ALA,land,2019.0,land,,,0.0,,,Mariehamn,60.09726,19.93481,AX,10682.0
6284,AZ,AZE,Azerbaijan,2019.0,Azerbaijan,AZE,6.16,4.0,5.96,6.44,Xankandi,39.8177,46.7528,AZ,53100.0
6285,AZ,AZE,Azerbaijan,2019.0,Azerbaijan,AZE,6.16,4.0,5.96,6.44,Ahmadbayli,39.87867,48.39901,AZ,17242.0
6286,AZ,AZE,Azerbaijan,2019.0,Azerbaijan,AZE,6.16,4.0,5.96,6.44,Shushi,39.76006,46.74989,AZ,18662.0
6287,AZ,AZE,Azerbaijan,2019.0,Azerbaijan,AZE,6.16,4.0,5.96,6.44,Salyan,39.59621,48.98479,AZ,36555.0
6288,AZ,AZE,Azerbaijan,2019.0,Azerbaijan,AZE,6.16,4.0,5.96,6.44,Saatli,39.93214,48.36892,AZ,87000.0
6289,AZ,AZE,Azerbaijan,2019.0,Azerbaijan,AZE,6.16,4.0,5.96,6.44,Neftcala,39.3768,49.247,AZ,18661.0
6290,AZ,AZE,Azerbaijan,2019.0,Azerbaijan,AZE,6.16,4.0,5.96,6.44,Nakhchivan,39.20889,45.41222,AZ,64754.0
6291,AZ,AZE,Azerbaijan,2019.0,Azerbaijan,AZE,6.16,4.0,5.96,6.44,Lankaran,38.75428,48.85062,AZ,240300.0
6292,AZ,AZE,Azerbaijan,2019.0,Azerbaijan,AZE,6.16,4.0,5.96,6.44,Imishli,39.87095,48.05995,AZ,34178.0
6293,AZ,AZE,Azerbaijan,2019.0,Azerbaijan,AZE,6.16,4.0,5.96,6.44,Fizuli,39.60094,47.14529,AZ,26765.0
6294,AZ,AZE,Azerbaijan,2019.0,Azerbaijan,AZE,6.16,4.0,5.96,6.44,Dzhalilabad,39.20963,48.49186,AZ,36259.0
6295,AZ,AZE,Azerbaijan,2019.0,Azerbaijan,AZE,6.16,4.0,5.96,6.44,Pushkino,39.45833,48.545,AZ,18182.0
6296,AZ,AZE,Azerbaijan,2019.0,Azerbaijan,AZE,6.16,4.0,5.96,6.44,Beylagan,39.77556,47.61861,AZ,15599.0
6297,AZ,AZE,Azerbaijan,2019.0,Azerbaijan,AZE,6.16,4.0,5.96,6.44,Astara,38.45598,48.87498,AZ,15190.0
6298,AZ,AZE,Azerbaijan,2019.0,Azerbaijan,AZE,6.16,4.0,5.96,6.44,Sirvan,39.93778,48.929,AZ,70220.0
6299,AZ,AZE,Azerbaijan,2019.0,Azerbaijan,AZE,6.16,4.0,5.96,6.44,Agdam,39.99096,46.92736,AZ,39451.0
6300,AZ,AZE,Azerbaijan,2019.0,Azerbaijan,AZE,6.16,4.0,5.96,6.44,Zaqatala,41.6316,46.64479,AZ,18277.0
6301,AZ,AZE,Azerbaijan,2019.0,Azerbaijan,AZE,6.16,4.0,5.96,6.44,Zabrat,40.47746,49.94174,AZ,21396.0
6302,AZ,AZE,Azerbaijan,2019.0,Azerbaijan,AZE,6.16,4.0,5.96,6.44,Yevlakh,40.61832,47.15014,AZ,59036.0
6303,AZ,AZE,Azerbaijan,2019.0,Azerbaijan,AZE,6.16,4.0,5.96,6.44,Yelenendorf,40.58584,46.3189,AZ,17816.0
6304,AZ,AZE,Azerbaijan,2019.0,Azerbaijan,AZE,6.16,4.0,5.96,6.44,Xacmaz,41.46426,48.80565,AZ,37175.0
6305,AZ,AZE,Azerbaijan,2019.0,Azerbaijan,AZE,6.16,4.0,5.96,6.44,Ujar,40.51902,47.65423,AZ,15741.0
6306,AZ,AZE,Azerbaijan,2019.0,Azerbaijan,AZE,6.16,4.0,5.96,6.44,Terter,40.34179,46.93242,AZ,18185.0
6307,AZ,AZE,Azerbaijan,2019.0,Azerbaijan,AZE,6.16,4.0,5.96,6.44,Sumqayit,40.58972,49.66861,AZ,265150.0
6308,AZ,AZE,Azerbaijan,2019.0,Azerbaijan,AZE,6.16,4.0,5.96,6.44,Qaracuxur,40.39667,49.97361,AZ,72989.0
6309,AZ,AZE,Azerbaijan,2019.0,Azerbaijan,AZE,6.16,4.0,5.96,6.44,Shamkhor,40.82975,46.0178,AZ,35421.0
6310,AZ,AZE,Azerbaijan,2019.0,Azerbaijan,AZE,6.16,4.0,5.96,6.44,Shamakhi,40.63141,48.64137,AZ,29403.0
6311,AZ,AZE,Azerbaijan,2019.0,Azerbaijan,AZE,6.16,4.0,5.96,6.44,Sheki,41.19194,47.17056,AZ,63000.0
6312,AZ,AZE,Azerbaijan,2019.0,Azerbaijan,AZE,6.16,4.0,5.96,6.44,Sabuncu,40.4425,49.94806,AZ,20996.0
6313,AZ,AZE,Azerbaijan,2019.0,Azerbaijan,AZE,6.16,4.0,5.96,6.44,Sabirabad,40.00869,48.47701,AZ,28075.0
6314,AZ,AZE,Azerbaijan,2019.0,Azerbaijan,AZE,6.16,4.0,5.96,6.44,Qusar,41.4275,48.4302,AZ,16022.0
6315,AZ,AZE,Azerbaijan,2019.0,Azerbaijan,AZE,6.16,4.0,5.96,6.44,Quba,41.36108,48.51341,AZ,22405.0
6316,AZ,AZE,Azerbaijan,2019.0,Azerbaijan,AZE,6.16,4.0,5.96,6.44,Haciqabul,40.03874,48.94286,AZ,23102.0
6317,AZ,AZE,Azerbaijan,2019.0,Azerbaijan,AZE,6.16,4.0,5.96,6.44,Qazax,41.09246,45.36561,AZ,18903.0
6318,AZ,AZE,Azerbaijan,2019.0,Azerbaijan,AZE,6.16,4.0,5.96,6.44,Haci Zeynalabdin,40.62333,49.55861,AZ,19019.0
6319,AZ,AZE,Azerbaijan,2019.0,Azerbaijan,AZE,6.16,4.0,5.96,6.44,Mingelchaur,40.76395,47.05953,AZ,95453.0
6320,AZ,AZE,Azerbaijan,2019.0,Azerbaijan,AZE,6.16,4.0,5.96,6.44,Mastaga,40.52983,50.00616,AZ,40092.0
6321,AZ,AZE,Azerbaijan,2019.0,Azerbaijan,AZE,6.16,4.0,5.96,6.44,Mardakan,40.49182,50.14292,AZ,15267.0
6322,AZ,AZE,Azerbaijan,2019.0,Azerbaijan,AZE,6.16,4.0,5.96,6.44,Lokbatan,40.3256,49.73376,AZ,30694.0
6323,AZ,AZE,Azerbaijan,2019.0,Azerbaijan,AZE,6.16,4.0,5.96,6.44,Kyurdarmir,40.34532,48.15085,AZ,19088.0
6324,AZ,AZE,Azerbaijan,2019.0,Azerbaijan,AZE,6.16,4.0,5.96,6.44,Khirdalan,40.44808,49.75502,AZ,37949.0
6325,AZ,AZE,Azerbaijan,2019.0,Azerbaijan,AZE,6.16,4.0,5.96,6.44,Yeni Suraxani,40.43026,50.03598,AZ,16127.0
6326,AZ,AZE,Azerbaijan,2019.0,Azerbaijan,AZE,6.16,4.0,5.96,6.44,Geoktschai,40.65055,47.74219,AZ,35348.0
6327,AZ,AZE,Azerbaijan,2019.0,Azerbaijan,AZE,6.16,4.0,5.96,6.44,Hovsan,40.37444,50.08528,AZ,36293.0
6328,AZ,AZE,Azerbaijan,2019.0,Azerbaijan,AZE,6.16,4.0,5.96,6.44,Ganja,40.68278,46.36056,AZ,313300.0
6329,AZ,AZE,Azerbaijan,2019.0,Azerbaijan,AZE,6.16,4.0,5.96,6.44,Divichibazar,41.20117,48.98712,AZ,23248.0
6330,AZ,AZE,Azerbaijan,2019.0,Azerbaijan,AZE,6.16,4.0,5.96,6.44,Buzovna,40.51903,50.11438,AZ,24795.0
6331,AZ,AZE,Azerbaijan,2019.0,Azerbaijan,AZE,6.16,4.0,5.96,6.44,Biny Selo,40.45076,50.08686,AZ,24596.0
6332,AZ,AZE,Azerbaijan,2019.0,Azerbaijan,AZE,6.16,4.0,5.96,6.44,Barda,40.37577,47.12619,AZ,37372.0
6333,AZ,AZE,Azerbaijan,2019.0,Azerbaijan,AZE,6.16,4.0,5.96,6.44,Bilajari,40.4444,49.80566,AZ,42194.0
6334,AZ,AZE,Azerbaijan,2019.0,Azerbaijan,AZE,6.16,4.0,5.96,6.44,Baku,40.37767,49.89201,AZ,1116513.0
6335,AZ,AZE,Azerbaijan,2019.0,Azerbaijan,AZE,6.16,4.0,5.96,6.44,Amirdzhan,40.42639,49.98361,AZ,26798.0
6336,AZ,AZE,Azerbaijan,2019.0,Azerbaijan,AZE,6.16,4.0,5.96,6.44,Aghsu,40.57028,48.40087,AZ,17209.0
6337,AZ,AZE,Azerbaijan,2019.0,Azerbaijan,AZE,6.16,4.0,5.96,6.44,Agdas,40.64699,47.4738,AZ,23528.0
6338,AZ,AZE,Azerbaijan,2019.0,Azerbaijan,AZE,6.16,4.0,5.96,6.44,Agdzhabedy,40.05015,47.45937,AZ,34989.0
6339,AZ,AZE,Azerbaijan,2019.0,Azerbaijan,AZE,6.16,4.0,5.96,6.44,Bakixanov,40.41894,49.96693,AZ,66686.0
6956,BA,BIH,Bosnia and Herzegovina,2019.0,Bosnia and Herzegovina,BIH,7.54,2.0,8.03,6.86,Zenica,44.20169,17.90397,BA,164423.0
6957,BA,BIH,Bosnia and Herzegovina,2019.0,Bosnia and Herzegovina,BIH,7.54,2.0,8.03,6.86,Visoko,43.98889,18.17806,BA,17890.0
6958,BA,BIH,Bosnia and Herzegovina,2019.0,Bosnia and Herzegovina,BIH,7.54,2.0,8.03,6.86,Velika Kladusa,45.18497,15.80579,BA,19330.0
6959,BA,BIH,Bosnia and Herzegovina,2019.0,Bosnia and Herzegovina,BIH,7.54,2.0,8.03,6.86,Tuzla,44.53842,18.66709,BA,142486.0
6960,BA,BIH,Bosnia and Herzegovina,2019.0,Bosnia and Herzegovina,BIH,7.54,2.0,8.03,6.86,Trebinje,42.71197,18.34362,BA,33178.0
6961,BA,BIH,Bosnia and Herzegovina,2019.0,Bosnia and Herzegovina,BIH,7.54,2.0,8.03,6.86,Travnik,44.22637,17.66583,BA,31127.0
6962,BA,BIH,Bosnia and Herzegovina,2019.0,Bosnia and Herzegovina,BIH,7.54,2.0,8.03,6.86,Sarajevo,43.84864,18.35644,BA,696731.0
6963,BA,BIH,Bosnia and Herzegovina,2019.0,Bosnia and Herzegovina,BIH,7.54,2.0,8.03,6.86,Prijedor,44.97991,16.71401,BA,36347.0
6964,BA,BIH,Bosnia and Herzegovina,2019.0,Bosnia and Herzegovina,BIH,7.54,2.0,8.03,6.86,Mostar,43.34333,17.80806,BA,104518.0
6965,BA,BIH,Bosnia and Herzegovina,2019.0,Bosnia and Herzegovina,BIH,7.54,2.0,8.03,6.86,Gradacac,44.87851,18.42764,BA,15659.0
6966,BA,BIH,Bosnia and Herzegovina,2019.0,Bosnia and Herzegovina,BIH,7.54,2.0,8.03,6.86,Gracanica,44.70307,18.3101,BA,15758.0
6967,BA,BIH,Bosnia and Herzegovina,2019.0,Bosnia and Herzegovina,BIH,7.54,2.0,8.03,6.86,Gorazde,43.66795,18.97564,BA,17650.0
6968,BA,BIH,Bosnia and Herzegovina,2019.0,Bosnia and Herzegovina,BIH,7.54,2.0,8.03,6.86,Doboj,44.73179,18.08698,BA,27235.0
6969,BA,BIH,Bosnia and Herzegovina,2019.0,Bosnia and Herzegovina,BIH,7.54,2.0,8.03,6.86,Cazin,44.96694,15.94306,BA,21741.0
6970,BA,BIH,Bosnia and Herzegovina,2019.0,Bosnia and Herzegovina,BIH,7.54,2.0,8.03,6.86,Bugojno,44.05722,17.45083,BA,41378.0
6971,BA,BIH,Bosnia and Herzegovina,2019.0,Bosnia and Herzegovina,BIH,7.54,2.0,8.03,6.86,Brcko,44.86995,18.81012,BA,38968.0
6972,BA,BIH,Bosnia and Herzegovina,2019.0,Bosnia and Herzegovina,BIH,7.54,2.0,8.03,6.86,Bosanska Krupa,44.8825,16.15139,BA,15193.0
6973,BA,BIH,Bosnia and Herzegovina,2019.0,Bosnia and Herzegovina,BIH,7.54,2.0,8.03,6.86,Bijeljina,44.75874,19.21437,BA,37692.0
6974,BA,BIH,Bosnia and Herzegovina,2019.0,Bosnia and Herzegovina,BIH,7.54,2.0,8.03,6.86,Bihac,44.81694,15.87083,BA,75641.0
6975,BA,BIH,Bosnia and Herzegovina,2019.0,Bosnia and Herzegovina,BIH,7.54,2.0,8.03,6.86,Banja Luka,44.77842,17.19386,BA,221106.0
6976,BA,BIH,Bosnia and Herzegovina,2019.0,Bosnia and Herzegovina,BIH,7.54,2.0,8.03,6.86,Konjic,43.65126,17.96082,BA,15950.0
7208,BB,BRB,Barbados,2019.0,Barbados,BRB,7.92,2.0,8.65,6.91,Bridgetown,13.10732,-59.62021,BB,98511.0
7220,BD,BGD,Bangladesh,2019.0,Bangladesh,BGD,5.75,4.0,5.52,6.05,Thakurgaon,26.03097,88.46989,BD,71096.0
7221,BD,BGD,Bangladesh,2019.0,Bangladesh,BGD,5.75,4.0,5.52,6.05,Teknaf,20.85829,92.29773,BD,40557.0
7222,BD,BGD,Bangladesh,2019.0,Bangladesh,BGD,5.75,4.0,5.52,6.05,Tungi,23.89154,90.40232,BD,337579.0
7223,BD,BGD,Bangladesh,2019.0,Bangladesh,BGD,5.75,4.0,5.52,6.05,Sylhet,24.89904,91.87198,BD,237000.0
7224,BD,BGD,Bangladesh,2019.0,Bangladesh,BGD,5.75,4.0,5.52,6.05,Dohar,23.59311,90.14251,BD,45543.0
7225,BD,BGD,Bangladesh,2019.0,Bangladesh,BGD,5.75,4.0,5.52,6.05,Jamalpur,24.91965,89.94812,BD,167900.0
7226,BD,BGD,Bangladesh,2019.0,Bangladesh,BGD,5.75,4.0,5.52,6.05,Shibganj,25.00146,89.32266,BD,378701.0
7227,BD,BGD,Bangladesh,2019.0,Bangladesh,BGD,5.75,4.0,5.52,6.05,Shibganj,24.68501,88.15638,BD,35961.0
7228,BD,BGD,Bangladesh,2019.0,Bangladesh,BGD,5.75,4.0,5.52,6.05,Satkhira,22.70817,89.07185,BD,128918.0
7229,BD,BGD,Bangladesh,2019.0,Bangladesh,BGD,5.75,4.0,5.52,6.05,Sirajganj,24.45771,89.70802,BD,127481.0
7230,BD,BGD,Bangladesh,2019.0,Bangladesh,BGD,5.75,4.0,5.52,6.05,Netrakona,24.88352,90.72898,BD,79016.0
7231,BD,BGD,Bangladesh,2019.0,Bangladesh,BGD,5.75,4.0,5.52,6.05,Narsingdi,23.92298,90.71768,BD,281080.0
7232,BD,BGD,Bangladesh,2019.0,Bangladesh,BGD,5.75,4.0,5.52,6.05,Sandwip,22.51409,91.45491,BD,52152.0
7233,BD,BGD,Bangladesh,2019.0,Bangladesh,BGD,5.75,4.0,5.52,6.05,Shahzadpur,24.17687,89.5988,BD,102420.0
7234,BD,BGD,Bangladesh,2019.0,Bangladesh,BGD,5.75,4.0,5.52,6.05,Ramganj,23.1006,90.84989,BD,55241.0
7235,BD,BGD,Bangladesh,2019.0,Bangladesh,BGD,5.75,4.0,5.52,6.05,Rajshahi,24.374,88.60114,BD,700133.0
7236,BD,BGD,Bangladesh,2019.0,Bangladesh,BGD,5.75,4.0,5.52,6.05,Pirojpur,22.57965,89.97521,BD,54418.0
7237,BD,BGD,Bangladesh,2019.0,Bangladesh,BGD,5.75,4.0,5.52,6.05,Panchagarh,26.33338,88.55777,BD,48531.0
7238,BD,BGD,Bangladesh,2019.0,Bangladesh,BGD,5.75,4.0,5.52,6.05,Patiya,22.29543,91.979,BD,51360.0
7239,BD,BGD,Bangladesh,2019.0,Bangladesh,BGD,5.75,4.0,5.52,6.05,Parbatipur,25.66369,88.93093,BD,48020.0
7240,BD,BGD,Bangladesh,2019.0,Bangladesh,BGD,5.75,4.0,5.52,6.05,Narayanganj,23.61352,90.50298,BD,223622.0
7241,BD,BGD,Bangladesh,2019.0,Bangladesh,BGD,5.75,4.0,5.52,6.05,Nalchiti,22.63696,90.27195,BD,38703.0
7242,BD,BGD,Bangladesh,2019.0,Bangladesh,BGD,5.75,4.0,5.52,6.05,Nagarpur,24.05783,89.87696,BD,238422.0
7243,BD,BGD,Bangladesh,2019.0,Bangladesh,BGD,5.75,4.0,5.52,6.05,Nageswari,25.96817,89.69153,BD,49425.0
7244,BD,BGD,Bangladesh,2019.0,Bangladesh,BGD,5.75,4.0,5.52,6.05,Mymensingh,24.75636,90.40646,BD,225126.0
7245,BD,BGD,Bangladesh,2019.0,Bangladesh,BGD,5.75,4.0,5.52,6.05,Muktagacha,24.76484,90.25698,BD,24684.0
7246,BD,BGD,Bangladesh,2019.0,Bangladesh,BGD,5.75,4.0,5.52,6.05,Mirzapur,24.10287,90.09841,BD,41137.0
7247,BD,BGD,Bangladesh,2019.0,Bangladesh,BGD,5.75,4.0,5.52,6.05,Maulavi Bazar,24.48888,91.77075,BD,57441.0
7248,BD,BGD,Bangladesh,2019.0,Bangladesh,BGD,5.75,4.0,5.52,6.05,Morrelgonj,22.45566,89.85584,BD,31647.0
7249,BD,BGD,Bangladesh,2019.0,Bangladesh,BGD,5.75,4.0,5.52,6.05,Mehendiganj,22.82257,90.52859,BD,39424.0
7250,BD,BGD,Bangladesh,2019.0,Bangladesh,BGD,5.75,4.0,5.52,6.05,Mathba,22.28616,89.95883,BD,29760.0
7251,BD,BGD,Bangladesh,2019.0,Bangladesh,BGD,5.75,4.0,5.52,6.05,Lalmonirhat,25.91719,89.44595,BD,65127.0
7252,BD,BGD,Bangladesh,2019.0,Bangladesh,BGD,5.75,4.0,5.52,6.05,Laksham,23.24018,91.12143,BD,82290.0
7253,BD,BGD,Bangladesh,2019.0,Bangladesh,BGD,5.75,4.0,5.52,6.05,Comilla,23.46186,91.18503,BD,389411.0
7254,BD,BGD,Bangladesh,2019.0,Bangladesh,BGD,5.75,4.0,5.52,6.05,Rangpur,25.74664,89.25166,BD,343122.0
7255,BD,BGD,Bangladesh,2019.0,Bangladesh,BGD,5.75,4.0,5.52,6.05,Kushtia,23.9028,89.11943,BD,135724.0
7256,BD,BGD,Bangladesh,2019.0,Bangladesh,BGD,5.75,4.0,5.52,6.05,Kaliganj,23.40964,89.13801,BD,45631.0
7257,BD,BGD,Bangladesh,2019.0,Bangladesh,BGD,5.75,4.0,5.52,6.05,Jhingergacha,23.11134,89.09061,BD,41957.0
7258,BD,BGD,Bangladesh,2019.0,Bangladesh,BGD,5.75,4.0,5.52,6.05,Joypur Hat,25.10147,89.02734,BD,73068.0
7259,BD,BGD,Bangladesh,2019.0,Bangladesh,BGD,5.75,4.0,5.52,6.05,Ishurdi,24.12858,89.06573,BD,81995.0
7260,BD,BGD,Bangladesh,2019.0,Bangladesh,BGD,5.75,4.0,5.52,6.05,Habiganj,24.38044,91.41299,BD,88760.0
7261,BD,BGD,Bangladesh,2019.0,Bangladesh,BGD,5.75,4.0,5.52,6.05,Gaurnadi,22.97372,90.22376,BD,40519.0
7262,BD,BGD,Bangladesh,2019.0,Bangladesh,BGD,5.75,4.0,5.52,6.05,Gafargaon,24.432,90.5585,BD,34177.0
7263,BD,BGD,Bangladesh,2019.0,Bangladesh,BGD,5.75,4.0,5.52,6.05,Feni,23.0144,91.3966,BD,84028.0
7264,BD,BGD,Bangladesh,2019.0,Bangladesh,BGD,5.75,4.0,5.52,6.05,Raipur,23.0391,90.76808,BD,64652.0
7265,BD,BGD,Bangladesh,2019.0,Bangladesh,BGD,5.75,4.0,5.52,6.05,Sarankhola,22.31006,89.79113,BD,36470.0
7266,BD,BGD,Bangladesh,2019.0,Bangladesh,BGD,5.75,4.0,5.52,6.05,Dhaka,23.7104,90.40744,BD,10356500.0
7267,BD,BGD,Bangladesh,2019.0,Bangladesh,BGD,5.75,4.0,5.52,6.05,Chilmari,25.55613,89.67097,BD,49736.0
7268,BD,BGD,Bangladesh,2019.0,Bangladesh,BGD,5.75,4.0,5.52,6.05,Chhagalnaiya,23.02475,91.51091,BD,39335.0
7269,BD,BGD,Bangladesh,2019.0,Bangladesh,BGD,5.75,4.0,5.52,6.05,Lalmohan,22.33774,90.73708,BD,42220.0
7270,BD,BGD,Bangladesh,2019.0,Bangladesh,BGD,5.75,4.0,5.52,6.05,Khagrachhari,23.10787,91.97007,BD,50364.0
7271,BD,BGD,Bangladesh,2019.0,Bangladesh,BGD,5.75,4.0,5.52,6.05,Chhatak,25.03852,91.66958,BD,39218.0
7272,BD,BGD,Bangladesh,2019.0,Bangladesh,BGD,5.75,4.0,5.52,6.05,Bhatpara Abhaynagar,23.01472,89.43936,BD,42653.0
7273,BD,BGD,Bangladesh,2019.0,Bangladesh,BGD,5.75,4.0,5.52,6.05,Bheramara,24.02452,88.99234,BD,38159.0
7274,BD,BGD,Bangladesh,2019.0,Bangladesh,BGD,5.75,4.0,5.52,6.05,Bhairab Bazar,24.0524,90.9764,BD,105457.0
7275,BD,BGD,Bangladesh,2019.0,Bangladesh,BGD,5.75,4.0,5.52,6.05,Bandarban,22.19534,92.21946,BD,32523.0
7276,BD,BGD,Bangladesh,2019.0,Bangladesh,BGD,5.75,4.0,5.52,6.05,Kalia,23.043,89.63094,BD,40492.0
7277,BD,BGD,Bangladesh,2019.0,Bangladesh,BGD,5.75,4.0,5.52,6.05,Baniachang,24.51863,91.35787,BD,37807.0
7278,BD,BGD,Bangladesh,2019.0,Bangladesh,BGD,5.75,4.0,5.52,6.05,Bajitpur,24.21623,90.95002,BD,34560.0
7279,BD,BGD,Bangladesh,2019.0,Bangladesh,BGD,5.75,4.0,5.52,6.05,Bagerhat,22.65657,89.79123,BD,266388.0
7280,BD,BGD,Bangladesh,2019.0,Bangladesh,BGD,5.75,4.0,5.52,6.05,Badarganj,25.67419,89.05377,BD,32600.0
7281,BD,BGD,Bangladesh,2019.0,Bangladesh,BGD,5.75,4.0,5.52,6.05,Narail,23.15509,89.49515,BD,55112.0
7282,BD,BGD,Bangladesh,2019.0,Bangladesh,BGD,5.75,4.0,5.52,6.05,Tungipara,22.89983,89.90326,BD,62210.0
7283,BD,BGD,Bangladesh,2019.0,Bangladesh,BGD,5.75,4.0,5.52,6.05,Sonargaon,23.65,90.61667,BD,130000.0
7284,BD,BGD,Bangladesh,2019.0,Bangladesh,BGD,5.75,4.0,5.52,6.05,Sarishabari,24.75127,89.83126,BD,81325.0
7285,BD,BGD,Bangladesh,2019.0,Bangladesh,BGD,5.75,4.0,5.52,6.05,Sakhipur,24.31988,90.16943,BD,40869.0
7286,BD,BGD,Bangladesh,2019.0,Bangladesh,BGD,5.75,4.0,5.52,6.05,Raojan,22.53511,91.91919,BD,25708.0
7287,BD,BGD,Bangladesh,2019.0,Bangladesh,BGD,5.75,4.0,5.52,6.05,Phultala,22.71673,89.51194,BD,37985.0
7288,BD,BGD,Bangladesh,2019.0,Bangladesh,BGD,5.75,4.0,5.52,6.05,Palang,23.21824,90.35076,BD,67652.0
7289,BD,BGD,Bangladesh,2019.0,Bangladesh,BGD,5.75,4.0,5.52,6.05,Par Naogaon,24.80418,88.94875,BD,192464.0
7290,BD,BGD,Bangladesh,2019.0,Bangladesh,BGD,5.75,4.0,5.52,6.05,Nabinagar,23.88791,90.96792,BD,31671.0
7291,BD,BGD,Bangladesh,2019.0,Bangladesh,BGD,5.75,4.0,5.52,6.05,Lakshmipur,22.9443,90.83005,BD,61703.0
7292,BD,BGD,Bangladesh,2019.0,Bangladesh,BGD,5.75,4.0,5.52,6.05,Kesabpur,22.90725,89.21954,BD,30926.0
7293,BD,BGD,Bangladesh,2019.0,Bangladesh,BGD,5.75,4.0,5.52,6.05,Hajiganj,23.25191,90.85508,BD,44343.0
7294,BD,BGD,Bangladesh,2019.0,Bangladesh,BGD,5.75,4.0,5.52,6.05,Faridpur,23.60612,89.84064,BD,112187.0
7295,BD,BGD,Bangladesh,2019.0,Bangladesh,BGD,5.75,4.0,5.52,6.05,Dinajpur,25.62745,88.63779,BD,206234.0
7296,BD,BGD,Bangladesh,2019.0,Bangladesh,BGD,5.75,4.0,5.52,6.05,Uttar Char Fasson,22.22647,90.71275,BD,48305.0
7297,BD,BGD,Bangladesh,2019.0,Bangladesh,BGD,5.75,4.0,5.52,6.05,Chittagong,22.3384,91.83168,BD,3920222.0
7298,BD,BGD,Bangladesh,2019.0,Bangladesh,BGD,5.75,4.0,5.52,6.05,Char Bhadrasan,23.30916,90.22698,BD,34423.0
7299,BD,BGD,Bangladesh,2019.0,Bangladesh,BGD,5.75,4.0,5.52,6.05,Bera,24.07821,89.63262,BD,39604.0
7300,BD,BGD,Bangladesh,2019.0,Bangladesh,BGD,5.75,4.0,5.52,6.05,Burhanuddin,22.49518,90.72391,BD,45670.0
7301,BD,BGD,Bangladesh,2019.0,Bangladesh,BGD,5.75,4.0,5.52,6.05,Satkania,22.07639,92.04955,BD,52005.0
7302,BD,BGD,Bangladesh,2019.0,Bangladesh,BGD,5.75,4.0,5.52,6.05,Cox's Bazar,21.43973,92.00955,BD,253788.0
7303,BD,BGD,Bangladesh,2019.0,Bangladesh,BGD,5.75,4.0,5.52,6.05,Khulna,22.80979,89.56439,BD,1342339.0
7304,BD,BGD,Bangladesh,2019.0,Bangladesh,BGD,5.75,4.0,5.52,6.05,Bhola,22.68759,90.64403,BD,99079.0
7305,BD,BGD,Bangladesh,2019.0,Bangladesh,BGD,5.75,4.0,5.52,6.05,Barisal,22.70497,90.37013,BD,202242.0
7306,BD,BGD,Bangladesh,2019.0,Bangladesh,BGD,5.75,4.0,5.52,6.05,Jessore,23.16971,89.21371,BD,243987.0
7307,BD,BGD,Bangladesh,2019.0,Bangladesh,BGD,5.75,4.0,5.52,6.05,Pabna,24.00644,89.2372,BD,186781.0
7308,BD,BGD,Bangladesh,2019.0,Bangladesh,BGD,5.75,4.0,5.52,6.05,Tangail,24.24984,89.91655,BD,180144.0
7309,BD,BGD,Bangladesh,2019.0,Bangladesh,BGD,5.75,4.0,5.52,6.05,Bogra,24.85098,89.37108,BD,210000.0
7310,BD,BGD,Bangladesh,2019.0,Bangladesh,BGD,5.75,4.0,5.52,6.05,Pirgaaj,25.85587,88.35943,BD,34606.0
7311,BD,BGD,Bangladesh,2019.0,Bangladesh,BGD,5.75,4.0,5.52,6.05,Nawabganj,24.59025,88.27444,BD,142361.0
7312,BD,BGD,Bangladesh,2019.0,Bangladesh,BGD,5.75,4.0,5.52,6.05,Madaripur,23.17097,90.20935,BD,84789.0
7313,BD,BGD,Bangladesh,2019.0,Bangladesh,BGD,5.75,4.0,5.52,6.05,Sherpur,25.01881,90.01751,BD,107419.0
7314,BD,BGD,Bangladesh,2019.0,Bangladesh,BGD,5.75,4.0,5.52,6.05,Kishorganj,24.43944,90.78291,BD,90690.0
7315,BD,BGD,Bangladesh,2019.0,Bangladesh,BGD,5.75,4.0,5.52,6.05,Manikchari,22.83957,91.84128,BD,24813.0
7316,BD,BGD,Bangladesh,2019.0,Bangladesh,BGD,5.75,4.0,5.52,6.05,Bhandaria,22.48898,90.06273,BD,30219.0
7317,BD,BGD,Bangladesh,2019.0,Bangladesh,BGD,5.75,4.0,5.52,6.05,Fatikchari,22.68768,91.78123,BD,33200.0
7318,BD,BGD,Bangladesh,2019.0,Bangladesh,BGD,5.75,4.0,5.52,6.05,Saidpur,25.77769,88.89169,BD,199422.0
7319,BD,BGD,Bangladesh,2019.0,Bangladesh,BGD,5.75,4.0,5.52,6.05,Puthia,24.36537,88.83431,BD,159406.0
7320,BD,BGD,Bangladesh,2019.0,Bangladesh,BGD,5.75,4.0,5.52,6.05,Natore,24.41112,88.98673,BD,369138.0
7321,BD,BGD,Bangladesh,2019.0,Bangladesh,BGD,5.75,4.0,5.52,6.05,Azimpur,23.7298,90.3854,BD,96641.0
7322,BD,BGD,Bangladesh,2019.0,Bangladesh,BGD,5.75,4.0,5.52,6.05,Paltan,23.73625,90.41426,BD,184492.0
7323,BD,BGD,Bangladesh,2019.0,Bangladesh,BGD,5.75,4.0,5.52,6.05,Joymontop,23.78789,90.16472,BD,56000.0
8468,BE,BEL,Belgium,2019.0,Belgium,BEL,8.61,1.0,9.31,7.62,Zwijndrecht,51.21979,4.32664,BE,18249.0
8469,BE,BEL,Belgium,2019.0,Belgium,BEL,8.61,1.0,9.31,7.62,Zwevegem,50.81268,3.33848,BE,23358.0
8470,BE,BEL,Belgium,2019.0,Belgium,BEL,8.61,1.0,9.31,7.62,Zottegem,50.86955,3.81052,BE,24434.0
8471,BE,BEL,Belgium,2019.0,Belgium,BEL,8.61,1.0,9.31,7.62,Zonhoven,50.99064,5.36819,BE,19922.0
8472,BE,BEL,Belgium,2019.0,Belgium,BEL,8.61,1.0,9.31,7.62,Zoersel,51.26825,4.71296,BE,20642.0
8473,BE,BEL,Belgium,2019.0,Belgium,BEL,8.61,1.0,9.31,7.62,Zemst,50.98318,4.46079,BE,21096.0
8474,BE,BEL,Belgium,2019.0,Belgium,BEL,8.61,1.0,9.31,7.62,Zele,51.06566,4.0403,BE,20236.0
8475,BE,BEL,Belgium,2019.0,Belgium,BEL,8.61,1.0,9.31,7.62,Zedelgem,51.14236,3.1368,BE,21968.0
8476,BE,BEL,Belgium,2019.0,Belgium,BEL,8.61,1.0,9.31,7.62,Zaventem,50.88365,4.47298,BE,28188.0
8477,BE,BEL,Belgium,2019.0,Belgium,BEL,8.61,1.0,9.31,7.62,Wuustwezel,51.39214,4.59546,BE,18117.0
8478,BE,BEL,Belgium,2019.0,Belgium,BEL,8.61,1.0,9.31,7.62,Willebroek,51.06041,4.36019,BE,22808.0
8479,BE,BEL,Belgium,2019.0,Belgium,BEL,8.61,1.0,9.31,7.62,Wevelgem,50.8,3.16667,BE,30954.0
8480,BE,BEL,Belgium,2019.0,Belgium,BEL,8.61,1.0,9.31,7.62,Wetteren,51.00526,3.88341,BE,22930.0
8481,BE,BEL,Belgium,2019.0,Belgium,BEL,8.61,1.0,9.31,7.62,Westerlo,51.09049,4.91544,BE,22579.0
8482,BE,BEL,Belgium,2019.0,Belgium,BEL,8.61,1.0,9.31,7.62,Wervik,50.78069,3.03854,BE,17340.0
8483,BE,BEL,Belgium,2019.0,Belgium,BEL,8.61,1.0,9.31,7.62,Wavre,50.71717,4.60138,BE,32112.0
8484,BE,BEL,Belgium,2019.0,Belgium,BEL,8.61,1.0,9.31,7.62,Waterloo,50.71469,4.3991,BE,29778.0
8485,BE,BEL,Belgium,2019.0,Belgium,BEL,8.61,1.0,9.31,7.62,Waregem,50.88898,3.42756,BE,35896.0
8486,BE,BEL,Belgium,2019.0,Belgium,BEL,8.61,1.0,9.31,7.62,Walcourt,50.25401,4.43796,BE,17501.0
8487,BE,BEL,Belgium,2019.0,Belgium,BEL,8.61,1.0,9.31,7.62,Vise,50.7376,5.69907,BE,17054.0
8488,BE,BEL,Belgium,2019.0,Belgium,BEL,8.61,1.0,9.31,7.62,Vilvoorde,50.92814,4.42938,BE,36955.0
8489,BE,BEL,Belgium,2019.0,Belgium,BEL,8.61,1.0,9.31,7.62,Verviers,50.58907,5.86241,BE,52824.0
8490,BE,BEL,Belgium,2019.0,Belgium,BEL,8.61,1.0,9.31,7.62,Turnhout,51.32254,4.94471,BE,39654.0
8491,BE,BEL,Belgium,2019.0,Belgium,BEL,8.61,1.0,9.31,7.62,Tubize,50.69059,4.2009,BE,21859.0
8492,BE,BEL,Belgium,2019.0,Belgium,BEL,8.61,1.0,9.31,7.62,Tournai,50.60715,3.38932,BE,67721.0
8493,BE,BEL,Belgium,2019.0,Belgium,BEL,8.61,1.0,9.31,7.62,Torhout,51.0656,3.10085,BE,18933.0
8494,BE,BEL,Belgium,2019.0,Belgium,BEL,8.61,1.0,9.31,7.62,Tongeren,50.78054,5.46484,BE,29816.0
8495,BE,BEL,Belgium,2019.0,Belgium,BEL,8.61,1.0,9.31,7.62,Tienen,50.80745,4.9378,BE,31743.0
8496,BE,BEL,Belgium,2019.0,Belgium,BEL,8.61,1.0,9.31,7.62,Tielt,50.99931,3.32707,BE,19299.0
8497,BE,BEL,Belgium,2019.0,Belgium,BEL,8.61,1.0,9.31,7.62,Tessenderlo,51.06513,5.08856,BE,16574.0
8498,BE,BEL,Belgium,2019.0,Belgium,BEL,8.61,1.0,9.31,7.62,Tervuren,50.82372,4.51418,BE,20623.0
8499,BE,BEL,Belgium,2019.0,Belgium,BEL,8.61,1.0,9.31,7.62,Temse,51.12794,4.21372,BE,26054.0
8500,BE,BEL,Belgium,2019.0,Belgium,BEL,8.61,1.0,9.31,7.62,Stekene,51.2099,4.03651,BE,16989.0
8501,BE,BEL,Belgium,2019.0,Belgium,BEL,8.61,1.0,9.31,7.62,Stabroek,51.33189,4.37127,BE,17294.0
8502,BE,BEL,Belgium,2019.0,Belgium,BEL,8.61,1.0,9.31,7.62,Soumagne,50.61385,5.74679,BE,15237.0
8503,BE,BEL,Belgium,2019.0,Belgium,BEL,8.61,1.0,9.31,7.62,Soignies,50.57904,4.07129,BE,24869.0
8504,BE,BEL,Belgium,2019.0,Belgium,BEL,8.61,1.0,9.31,7.62,Sint-Truiden,50.81679,5.18647,BE,37859.0
8505,BE,BEL,Belgium,2019.0,Belgium,BEL,8.61,1.0,9.31,7.62,Sint-Pieters-Leeuw,50.77926,4.24355,BE,30446.0
8506,BE,BEL,Belgium,2019.0,Belgium,BEL,8.61,1.0,9.31,7.62,Sint-Niklaas,51.16509,4.1437,BE,69010.0
8507,BE,BEL,Belgium,2019.0,Belgium,BEL,8.61,1.0,9.31,7.62,Sint-Kruis,51.21399,3.24949,BE,16000.0
8508,BE,BEL,Belgium,2019.0,Belgium,BEL,8.61,1.0,9.31,7.62,Sint-Katelijne-Waver,51.06691,4.53469,BE,19487.0
8509,BE,BEL,Belgium,2019.0,Belgium,BEL,8.61,1.0,9.31,7.62,Sint-Gillis-Waas,51.21914,4.12374,BE,17658.0
8510,BE,BEL,Belgium,2019.0,Belgium,BEL,8.61,1.0,9.31,7.62,Sint-Genesius-Rode,50.74645,4.35754,BE,17990.0
8511,BE,BEL,Belgium,2019.0,Belgium,BEL,8.61,1.0,9.31,7.62,Seraing,50.58362,5.50115,BE,60737.0
8512,BE,BEL,Belgium,2019.0,Belgium,BEL,8.61,1.0,9.31,7.62,Schoten,51.25251,4.50268,BE,33622.0
8513,BE,BEL,Belgium,2019.0,Belgium,BEL,8.61,1.0,9.31,7.62,Schilde,51.24107,4.58336,BE,20373.0
8514,BE,BEL,Belgium,2019.0,Belgium,BEL,8.61,1.0,9.31,7.62,Saint-Nicolas,50.62837,5.53243,BE,22586.0
8515,BE,BEL,Belgium,2019.0,Belgium,BEL,8.61,1.0,9.31,7.62,Saint-Ghislain,50.44816,3.81886,BE,22500.0
8516,BE,BEL,Belgium,2019.0,Belgium,BEL,8.61,1.0,9.31,7.62,Rotselaar,50.95302,4.71665,BE,15007.0
8517,BE,BEL,Belgium,2019.0,Belgium,BEL,8.61,1.0,9.31,7.62,Ronse,50.74574,3.6005,BE,24204.0
8518,BE,BEL,Belgium,2019.0,Belgium,BEL,8.61,1.0,9.31,7.62,Roeselare,50.94653,3.12269,BE,56016.0
8519,BE,BEL,Belgium,2019.0,Belgium,BEL,8.61,1.0,9.31,7.62,Rixensart,50.71229,4.52529,BE,21616.0
8520,BE,BEL,Belgium,2019.0,Belgium,BEL,8.61,1.0,9.31,7.62,Riemst,50.80995,5.60131,BE,15809.0
8521,BE,BEL,Belgium,2019.0,Belgium,BEL,8.61,1.0,9.31,7.62,Ranst,51.18983,4.56533,BE,17405.0
8522,BE,BEL,Belgium,2019.0,Belgium,BEL,8.61,1.0,9.31,7.62,Quaregnon,50.44067,3.8653,BE,18491.0
8523,BE,BEL,Belgium,2019.0,Belgium,BEL,8.61,1.0,9.31,7.62,Puurs,51.07409,4.28844,BE,15944.0
8524,BE,BEL,Belgium,2019.0,Belgium,BEL,8.61,1.0,9.31,7.62,Putte,51.05337,4.63263,BE,15276.0
8525,BE,BEL,Belgium,2019.0,Belgium,BEL,8.61,1.0,9.31,7.62,Poperinge,50.85386,2.72659,BE,19537.0
8526,BE,BEL,Belgium,2019.0,Belgium,BEL,8.61,1.0,9.31,7.62,Pont-a-Celles,50.50518,4.36887,BE,15909.0
8527,BE,BEL,Belgium,2019.0,Belgium,BEL,8.61,1.0,9.31,7.62,Peruwelz,50.50819,3.59373,BE,16647.0
8528,BE,BEL,Belgium,2019.0,Belgium,BEL,8.61,1.0,9.31,7.62,Peer,51.1303,5.45952,BE,15551.0
8529,BE,BEL,Belgium,2019.0,Belgium,BEL,8.61,1.0,9.31,7.62,Overijse,50.77436,4.53461,BE,23486.0
8530,BE,BEL,Belgium,2019.0,Belgium,BEL,8.61,1.0,9.31,7.62,Oupeye,50.71184,5.6468,BE,23594.0
8531,BE,BEL,Belgium,2019.0,Belgium,BEL,8.61,1.0,9.31,7.62,Oudenaarde,50.85168,3.60891,BE,27935.0
8532,BE,BEL,Belgium,2019.0,Belgium,BEL,8.61,1.0,9.31,7.62,Oostkamp,51.15432,3.23128,BE,21489.0
8533,BE,BEL,Belgium,2019.0,Belgium,BEL,8.61,1.0,9.31,7.62,Ostend,51.21551,2.927,BE,69011.0
8534,BE,BEL,Belgium,2019.0,Belgium,BEL,8.61,1.0,9.31,7.62,Nivelles,50.59833,4.32848,BE,24149.0
8535,BE,BEL,Belgium,2019.0,Belgium,BEL,8.61,1.0,9.31,7.62,Ninove,50.82776,4.02657,BE,34795.0
8536,BE,BEL,Belgium,2019.0,Belgium,BEL,8.61,1.0,9.31,7.62,Nijlen,51.16096,4.67008,BE,20792.0
8537,BE,BEL,Belgium,2019.0,Belgium,BEL,8.61,1.0,9.31,7.62,Neerpelt,51.22807,5.4427,BE,16122.0
8538,BE,BEL,Belgium,2019.0,Belgium,BEL,8.61,1.0,9.31,7.62,Namur,50.4669,4.86746,BE,106284.0
8539,BE,BEL,Belgium,2019.0,Belgium,BEL,8.61,1.0,9.31,7.62,Mouscron,50.74497,3.20639,BE,52069.0
8540,BE,BEL,Belgium,2019.0,Belgium,BEL,8.61,1.0,9.31,7.62,Mortsel,51.16697,4.45127,BE,24525.0
8541,BE,BEL,Belgium,2019.0,Belgium,BEL,8.61,1.0,9.31,7.62,Morlanwelz-Mariemont,50.45502,4.24519,BE,18233.0
8542,BE,BEL,Belgium,2019.0,Belgium,BEL,8.61,1.0,9.31,7.62,Mons,50.45413,3.95229,BE,91277.0
8543,BE,BEL,Belgium,2019.0,Belgium,BEL,8.61,1.0,9.31,7.62,Mol,51.19188,5.11662,BE,32659.0
8544,BE,BEL,Belgium,2019.0,Belgium,BEL,8.61,1.0,9.31,7.62,Middelkerke,51.18532,2.82077,BE,17789.0
8545,BE,BEL,Belgium,2019.0,Belgium,BEL,8.61,1.0,9.31,7.62,Merelbeke,50.99447,3.74621,BE,22047.0
8546,BE,BEL,Belgium,2019.0,Belgium,BEL,8.61,1.0,9.31,7.62,Menen,50.79722,3.12245,BE,31916.0
8547,BE,BEL,Belgium,2019.0,Belgium,BEL,8.61,1.0,9.31,7.62,Meise,50.93934,4.32655,BE,18497.0
8548,BE,BEL,Belgium,2019.0,Belgium,BEL,8.61,1.0,9.31,7.62,Mechelen,51.02574,4.47762,BE,77530.0
8549,BE,BEL,Belgium,2019.0,Belgium,BEL,8.61,1.0,9.31,7.62,Marche-en-Famenne,50.22678,5.34416,BE,16856.0
8550,BE,BEL,Belgium,2019.0,Belgium,BEL,8.61,1.0,9.31,7.62,Manage,50.50312,4.23589,BE,22196.0
8551,BE,BEL,Belgium,2019.0,Belgium,BEL,8.61,1.0,9.31,7.62,Maldegem,51.20737,3.44511,BE,22092.0
8552,BE,BEL,Belgium,2019.0,Belgium,BEL,8.61,1.0,9.31,7.62,Maasmechelen,50.96545,5.69452,BE,36251.0
8553,BE,BEL,Belgium,2019.0,Belgium,BEL,8.61,1.0,9.31,7.62,Maaseik,51.09802,5.78379,BE,23684.0
8554,BE,BEL,Belgium,2019.0,Belgium,BEL,8.61,1.0,9.31,7.62,Louvain-la-Neuve,50.66829,4.61443,BE,29521.0
8555,BE,BEL,Belgium,2019.0,Belgium,BEL,8.61,1.0,9.31,7.62,Londerzeel,51.00468,4.30304,BE,17274.0
8556,BE,BEL,Belgium,2019.0,Belgium,BEL,8.61,1.0,9.31,7.62,Lommel,51.23074,5.31349,BE,31993.0
8557,BE,BEL,Belgium,2019.0,Belgium,BEL,8.61,1.0,9.31,7.62,Lokeren,51.10364,3.99339,BE,37567.0
8558,BE,BEL,Belgium,2019.0,Belgium,BEL,8.61,1.0,9.31,7.62,Lochristi,51.09644,3.83194,BE,19696.0
8559,BE,BEL,Belgium,2019.0,Belgium,BEL,8.61,1.0,9.31,7.62,Lille,51.24197,4.82313,BE,15466.0
8560,BE,BEL,Belgium,2019.0,Belgium,BEL,8.61,1.0,9.31,7.62,Lier,51.13128,4.57041,BE,33272.0
8561,BE,BEL,Belgium,2019.0,Belgium,BEL,8.61,1.0,9.31,7.62,Liege,50.63373,5.56749,BE,182597.0
8562,BE,BEL,Belgium,2019.0,Belgium,BEL,8.61,1.0,9.31,7.62,Leuven,50.87959,4.70093,BE,92892.0
8563,BE,BEL,Belgium,2019.0,Belgium,BEL,8.61,1.0,9.31,7.62,Lessines,50.71104,3.83579,BE,17687.0
8564,BE,BEL,Belgium,2019.0,Belgium,BEL,8.61,1.0,9.31,7.62,Lede,50.96626,3.98594,BE,16813.0
8565,BE,BEL,Belgium,2019.0,Belgium,BEL,8.61,1.0,9.31,7.62,Lebbeke,51.00464,4.13457,BE,17372.0
8566,BE,BEL,Belgium,2019.0,Belgium,BEL,8.61,1.0,9.31,7.62,Lanaken,50.89318,5.6468,BE,24771.0
8567,BE,BEL,Belgium,2019.0,Belgium,BEL,8.61,1.0,9.31,7.62,La Louviere,50.48657,4.18785,BE,76668.0
8568,BE,BEL,Belgium,2019.0,Belgium,BEL,8.61,1.0,9.31,7.62,Kortrijk,50.82803,3.26487,BE,73879.0
8569,BE,BEL,Belgium,2019.0,Belgium,BEL,8.61,1.0,9.31,7.62,Kortenberg,50.88982,4.54353,BE,17774.0
8570,BE,BEL,Belgium,2019.0,Belgium,BEL,8.61,1.0,9.31,7.62,Kontich,51.13213,4.44706,BE,20290.0
8571,BE,BEL,Belgium,2019.0,Belgium,BEL,8.61,1.0,9.31,7.62,Koksijde,51.11642,2.63772,BE,21027.0
8572,BE,BEL,Belgium,2019.0,Belgium,BEL,8.61,1.0,9.31,7.62,Knokke-Heist,51.35,3.26667,BE,33781.0
8573,BE,BEL,Belgium,2019.0,Belgium,BEL,8.61,1.0,9.31,7.62,Kasterlee,51.24118,4.96651,BE,17765.0
8574,BE,BEL,Belgium,2019.0,Belgium,BEL,8.61,1.0,9.31,7.62,Kapellen,51.31377,4.43539,BE,26410.0
8575,BE,BEL,Belgium,2019.0,Belgium,BEL,8.61,1.0,9.31,7.62,Kalmthout,51.38442,4.47556,BE,17485.0
8576,BE,BEL,Belgium,2019.0,Belgium,BEL,8.61,1.0,9.31,7.62,Izegem,50.91396,3.21378,BE,26382.0
8577,BE,BEL,Belgium,2019.0,Belgium,BEL,8.61,1.0,9.31,7.62,Ieper,50.85114,2.88569,BE,35089.0
8578,BE,BEL,Belgium,2019.0,Belgium,BEL,8.61,1.0,9.31,7.62,Huy,50.51894,5.23284,BE,19973.0
8579,BE,BEL,Belgium,2019.0,Belgium,BEL,8.61,1.0,9.31,7.62,Houthalen,51.03427,5.37429,BE,30050.0
8580,BE,BEL,Belgium,2019.0,Belgium,BEL,8.61,1.0,9.31,7.62,Hoogstraten,51.40029,4.76034,BE,18524.0
8581,BE,BEL,Belgium,2019.0,Belgium,BEL,8.61,1.0,9.31,7.62,Hoboken,51.17611,4.34844,BE,34443.0
8582,BE,BEL,Belgium,2019.0,Belgium,BEL,8.61,1.0,9.31,7.62,Heusden,51.03664,5.28013,BE,31017.0
8583,BE,BEL,Belgium,2019.0,Belgium,BEL,8.61,1.0,9.31,7.62,Herzele,50.88681,3.89014,BE,16523.0
8584,BE,BEL,Belgium,2019.0,Belgium,BEL,8.61,1.0,9.31,7.62,Herve,50.64083,5.79353,BE,16544.0
8585,BE,BEL,Belgium,2019.0,Belgium,BEL,8.61,1.0,9.31,7.62,Herstal,50.66415,5.62346,BE,36503.0
8586,BE,BEL,Belgium,2019.0,Belgium,BEL,8.61,1.0,9.31,7.62,Herentals,51.17655,4.83248,BE,25912.0
8587,BE,BEL,Belgium,2019.0,Belgium,BEL,8.61,1.0,9.31,7.62,Herent,50.90861,4.67056,BE,19218.0
8588,BE,BEL,Belgium,2019.0,Belgium,BEL,8.61,1.0,9.31,7.62,Helchteren,51.05591,5.38244,BE,30050.0
8589,BE,BEL,Belgium,2019.0,Belgium,BEL,8.61,1.0,9.31,7.62,Heist-op-den-Berg,51.07537,4.72827,BE,37873.0
8590,BE,BEL,Belgium,2019.0,Belgium,BEL,8.61,1.0,9.31,7.62,Hasselt,50.93106,5.33781,BE,69222.0
8591,BE,BEL,Belgium,2019.0,Belgium,BEL,8.61,1.0,9.31,7.62,Harelbeke,50.85343,3.30935,BE,25978.0
8592,BE,BEL,Belgium,2019.0,Belgium,BEL,8.61,1.0,9.31,7.62,Hamme,51.09822,4.13705,BE,22891.0
8593,BE,BEL,Belgium,2019.0,Belgium,BEL,8.61,1.0,9.31,7.62,Halle,50.73385,4.23454,BE,34479.0
8594,BE,BEL,Belgium,2019.0,Belgium,BEL,8.61,1.0,9.31,7.62,Haaltert,50.90634,4.00093,BE,17129.0
8595,BE,BEL,Belgium,2019.0,Belgium,BEL,8.61,1.0,9.31,7.62,Grimbergen,50.93409,4.37213,BE,33561.0
8596,BE,BEL,Belgium,2019.0,Belgium,BEL,8.61,1.0,9.31,7.62,Geraardsbergen,50.77343,3.88223,BE,30807.0
8597,BE,BEL,Belgium,2019.0,Belgium,BEL,8.61,1.0,9.31,7.62,Gent,51.05,3.71667,BE,231493.0
8598,BE,BEL,Belgium,2019.0,Belgium,BEL,8.61,1.0,9.31,7.62,Genk,50.965,5.50082,BE,63666.0
8599,BE,BEL,Belgium,2019.0,Belgium,BEL,8.61,1.0,9.31,7.62,Gembloux,50.56149,4.69889,BE,21676.0
8600,BE,BEL,Belgium,2019.0,Belgium,BEL,8.61,1.0,9.31,7.62,Geel,51.16557,4.98917,BE,34697.0
8601,BE,BEL,Belgium,2019.0,Belgium,BEL,8.61,1.0,9.31,7.62,Frameries,50.40578,3.89603,BE,20598.0
8602,BE,BEL,Belgium,2019.0,Belgium,BEL,8.61,1.0,9.31,7.62,Fleurus,50.48351,4.55006,BE,22080.0
8603,BE,BEL,Belgium,2019.0,Belgium,BEL,8.61,1.0,9.31,7.62,Fleron,50.61516,5.68062,BE,15994.0
8604,BE,BEL,Belgium,2019.0,Belgium,BEL,8.61,1.0,9.31,7.62,Flemalle-Haute,50.59994,5.44471,BE,25144.0
8605,BE,BEL,Belgium,2019.0,Belgium,BEL,8.61,1.0,9.31,7.62,Evergem,51.10529,3.704,BE,31615.0
8606,BE,BEL,Belgium,2019.0,Belgium,BEL,8.61,1.0,9.31,7.62,Eupen,50.6279,6.03647,BE,18029.0
8607,BE,BEL,Belgium,2019.0,Belgium,BEL,8.61,1.0,9.31,7.62,Essen,51.46791,4.46901,BE,16754.0
8608,BE,BEL,Belgium,2019.0,Belgium,BEL,8.61,1.0,9.31,7.62,Eeklo,51.18703,3.55654,BE,19116.0
8609,BE,BEL,Belgium,2019.0,Belgium,BEL,8.61,1.0,9.31,7.62,Edegem,51.15662,4.44504,BE,21839.0
8610,BE,BEL,Belgium,2019.0,Belgium,BEL,8.61,1.0,9.31,7.62,Duffel,51.09554,4.50903,BE,16011.0
8611,BE,BEL,Belgium,2019.0,Belgium,BEL,8.61,1.0,9.31,7.62,Dour,50.39583,3.77792,BE,16861.0
8612,BE,BEL,Belgium,2019.0,Belgium,BEL,8.61,1.0,9.31,7.62,Dilbeek,50.84799,4.25972,BE,39482.0
8613,BE,BEL,Belgium,2019.0,Belgium,BEL,8.61,1.0,9.31,7.62,Diksmuide,51.03248,2.86384,BE,15515.0
8614,BE,BEL,Belgium,2019.0,Belgium,BEL,8.61,1.0,9.31,7.62,Diest,50.98923,5.05062,BE,22516.0
8615,BE,BEL,Belgium,2019.0,Belgium,BEL,8.61,1.0,9.31,7.62,Diepenbeek,50.90769,5.41875,BE,17699.0
8616,BE,BEL,Belgium,2019.0,Belgium,BEL,8.61,1.0,9.31,7.62,Destelbergen,51.05952,3.79899,BE,16853.0
8617,BE,BEL,Belgium,2019.0,Belgium,BEL,8.61,1.0,9.31,7.62,Dendermonde,51.02869,4.10106,BE,43055.0
8618,BE,BEL,Belgium,2019.0,Belgium,BEL,8.61,1.0,9.31,7.62,Denderleeuw,50.88506,4.07601,BE,16969.0
8619,BE,BEL,Belgium,2019.0,Belgium,BEL,8.61,1.0,9.31,7.62,Deinze,50.98175,3.53096,BE,29815.0
8620,BE,BEL,Belgium,2019.0,Belgium,BEL,8.61,1.0,9.31,7.62,Courcelles,50.46379,4.3747,BE,29473.0
8621,BE,BEL,Belgium,2019.0,Belgium,BEL,8.61,1.0,9.31,7.62,Colfontaine,50.4141,3.85569,BE,19964.0
8622,BE,BEL,Belgium,2019.0,Belgium,BEL,8.61,1.0,9.31,7.62,Chaudfontaine,50.5828,5.6341,BE,20960.0
8623,BE,BEL,Belgium,2019.0,Belgium,BEL,8.61,1.0,9.31,7.62,Chatelet,50.40338,4.52826,BE,35238.0
8624,BE,BEL,Belgium,2019.0,Belgium,BEL,8.61,1.0,9.31,7.62,Chasse Royale,50.42842,3.95001,BE,0.0
8625,BE,BEL,Belgium,2019.0,Belgium,BEL,8.61,1.0,9.31,7.62,Charleroi,50.41136,4.44448,BE,200132.0
8626,BE,BEL,Belgium,2019.0,Belgium,BEL,8.61,1.0,9.31,7.62,Brussels,50.85045,4.34878,BE,1019022.0
8627,BE,BEL,Belgium,2019.0,Belgium,BEL,8.61,1.0,9.31,7.62,Brugge,51.20892,3.22424,BE,116709.0
8628,BE,BEL,Belgium,2019.0,Belgium,BEL,8.61,1.0,9.31,7.62,Brecht,51.35024,4.63829,BE,25908.0
8629,BE,BEL,Belgium,2019.0,Belgium,BEL,8.61,1.0,9.31,7.62,Brasschaat,51.2912,4.49182,BE,37040.0
8630,BE,BEL,Belgium,2019.0,Belgium,BEL,8.61,1.0,9.31,7.62,Braine-le-Comte,50.60979,4.14658,BE,20133.0
8631,BE,BEL,Belgium,2019.0,Belgium,BEL,8.61,1.0,9.31,7.62,Braine-l'Alleud,50.68363,4.36784,BE,37512.0
8632,BE,BEL,Belgium,2019.0,Belgium,BEL,8.61,1.0,9.31,7.62,Boussu,50.43417,3.7944,BE,20058.0
8633,BE,BEL,Belgium,2019.0,Belgium,BEL,8.61,1.0,9.31,7.62,Bornem,51.09716,4.24364,BE,19997.0
8634,BE,BEL,Belgium,2019.0,Belgium,BEL,8.61,1.0,9.31,7.62,Boom,51.09242,4.3717,BE,15810.0
8635,BE,BEL,Belgium,2019.0,Belgium,BEL,8.61,1.0,9.31,7.62,Blankenberge,51.31306,3.13227,BE,18230.0
8636,BE,BEL,Belgium,2019.0,Belgium,BEL,8.61,1.0,9.31,7.62,Binche,50.41155,4.16469,BE,32030.0
8637,BE,BEL,Belgium,2019.0,Belgium,BEL,8.61,1.0,9.31,7.62,Bilzen,50.87325,5.5184,BE,29622.0
8638,BE,BEL,Belgium,2019.0,Belgium,BEL,8.61,1.0,9.31,7.62,Beveren,51.21187,4.25633,BE,45179.0
8639,BE,BEL,Belgium,2019.0,Belgium,BEL,8.61,1.0,9.31,7.62,Beringen,51.04954,5.22606,BE,40930.0
8640,BE,BEL,Belgium,2019.0,Belgium,BEL,8.61,1.0,9.31,7.62,Beersel,50.76589,4.3002,BE,23228.0
8641,BE,BEL,Belgium,2019.0,Belgium,BEL,8.61,1.0,9.31,7.62,Beerse,51.31927,4.85304,BE,16208.0
8642,BE,BEL,Belgium,2019.0,Belgium,BEL,8.61,1.0,9.31,7.62,Balen,51.16837,5.17027,BE,19978.0
8643,BE,BEL,Belgium,2019.0,Belgium,BEL,8.61,1.0,9.31,7.62,Ath,50.62937,3.77801,BE,26681.0
8644,BE,BEL,Belgium,2019.0,Belgium,BEL,8.61,1.0,9.31,7.62,Asse,50.91011,4.19836,BE,28985.0
8645,BE,BEL,Belgium,2019.0,Belgium,BEL,8.61,1.0,9.31,7.62,Arlon,49.68333,5.81667,BE,26179.0
8646,BE,BEL,Belgium,2019.0,Belgium,BEL,8.61,1.0,9.31,7.62,Antwerpen,51.21989,4.40346,BE,459805.0
8647,BE,BEL,Belgium,2019.0,Belgium,BEL,8.61,1.0,9.31,7.62,Ans,50.6623,5.52029,BE,27297.0
8648,BE,BEL,Belgium,2019.0,Belgium,BEL,8.61,1.0,9.31,7.62,Andenne,50.48941,5.09513,BE,24055.0
8649,BE,BEL,Belgium,2019.0,Belgium,BEL,8.61,1.0,9.31,7.62,Aarschot,50.98715,4.83695,BE,27656.0
8650,BE,BEL,Belgium,2019.0,Belgium,BEL,8.61,1.0,9.31,7.62,Aalter,51.09017,3.44693,BE,18802.0
8651,BE,BEL,Belgium,2019.0,Belgium,BEL,8.61,1.0,9.31,7.62,Aalst,50.93604,4.0355,BE,77534.0
10676,BF,BFA,Burkina Faso,2019.0,Burkina Faso,BFA,6.85,3.0,7.44,6.04,Zorgo,12.24922,-0.61527,BF,23892.0
10677,BF,BFA,Burkina Faso,2019.0,Burkina Faso,BFA,6.85,3.0,7.44,6.04,Yako,12.9591,-2.26075,BF,22904.0
10678,BF,BFA,Burkina Faso,2019.0,Burkina Faso,BFA,6.85,3.0,7.44,6.04,Tougan,13.0725,-3.0694,BF,17590.0
10679,BF,BFA,Burkina Faso,2019.0,Burkina Faso,BFA,6.85,3.0,7.44,6.04,Titao,13.76667,-2.06667,BF,19131.0
10680,BF,BFA,Burkina Faso,2019.0,Burkina Faso,BFA,6.85,3.0,7.44,6.04,Tenkodogo,11.78,-0.36972,BF,37658.0
10681,BF,BFA,Burkina Faso,2019.0,Burkina Faso,BFA,6.85,3.0,7.44,6.04,Reo,12.31963,-2.47094,BF,37535.0
10682,BF,BFA,Burkina Faso,2019.0,Burkina Faso,BFA,6.85,3.0,7.44,6.04,Po,11.16972,-1.145,BF,17924.0
10683,BF,BFA,Burkina Faso,2019.0,Burkina Faso,BFA,6.85,3.0,7.44,6.04,Ouahigouya,13.58278,-2.42158,BF,61096.0
10684,BF,BFA,Burkina Faso,2019.0,Burkina Faso,BFA,6.85,3.0,7.44,6.04,Ouagadougou,12.36566,-1.53388,BF,1086505.0
10685,BF,BFA,Burkina Faso,2019.0,Burkina Faso,BFA,6.85,3.0,7.44,6.04,Nouna,12.72939,-3.86305,BF,29048.0
10686,BF,BFA,Burkina Faso,2019.0,Burkina Faso,BFA,6.85,3.0,7.44,6.04,Manga,11.66361,-1.07306,BF,15173.0
10687,BF,BFA,Burkina Faso,2019.0,Burkina Faso,BFA,6.85,3.0,7.44,6.04,Leo,11.10033,-2.10654,BF,26884.0
10688,BF,BFA,Burkina Faso,2019.0,Burkina Faso,BFA,6.85,3.0,7.44,6.04,Koupela,12.17864,-0.35103,BF,32052.0
10689,BF,BFA,Burkina Faso,2019.0,Burkina Faso,BFA,6.85,3.0,7.44,6.04,Koudougou,12.25263,-2.36272,BF,87347.0
10690,BF,BFA,Burkina Faso,2019.0,Burkina Faso,BFA,6.85,3.0,7.44,6.04,Kongoussi,13.32583,-1.53472,BF,26338.0
10691,BF,BFA,Burkina Faso,2019.0,Burkina Faso,BFA,6.85,3.0,7.44,6.04,Kombissiri,12.06095,-1.33355,BF,30137.0
10692,BF,BFA,Burkina Faso,2019.0,Burkina Faso,BFA,6.85,3.0,7.44,6.04,Kokologo,12.18972,-1.88556,BF,25958.0
10693,BF,BFA,Burkina Faso,2019.0,Burkina Faso,BFA,6.85,3.0,7.44,6.04,Kaya,13.09167,-1.08444,BF,39229.0
10694,BF,BFA,Burkina Faso,2019.0,Burkina Faso,BFA,6.85,3.0,7.44,6.04,Hounde,11.5,-3.51667,BF,36593.0
10695,BF,BFA,Burkina Faso,2019.0,Burkina Faso,BFA,6.85,3.0,7.44,6.04,Gourcy,13.20776,-2.35893,BF,16765.0
10696,BF,BFA,Burkina Faso,2019.0,Burkina Faso,BFA,6.85,3.0,7.44,6.04,Garango,11.8,-0.55056,BF,29076.0
10697,BF,BFA,Burkina Faso,2019.0,Burkina Faso,BFA,6.85,3.0,7.44,6.04,Fada N'gourma,12.06157,0.35843,BF,33910.0
10698,BF,BFA,Burkina Faso,2019.0,Burkina Faso,BFA,6.85,3.0,7.44,6.04,Dori,14.0354,-0.0345,BF,37806.0
10699,BF,BFA,Burkina Faso,2019.0,Burkina Faso,BFA,6.85,3.0,7.44,6.04,Djibo,14.0994,-1.62554,BF,22223.0
10700,BF,BFA,Burkina Faso,2019.0,Burkina Faso,BFA,6.85,3.0,7.44,6.04,Diapaga,12.07305,1.78838,BF,26013.0
10701,BF,BFA,Burkina Faso,2019.0,Burkina Faso,BFA,6.85,3.0,7.44,6.04,Dedougou,12.46338,-3.46075,BF,45341.0
10702,BF,BFA,Burkina Faso,2019.0,Burkina Faso,BFA,6.85,3.0,7.44,6.04,Bousse,12.6576,-1.89288,BF,15868.0
10703,BF,BFA,Burkina Faso,2019.0,Burkina Faso,BFA,6.85,3.0,7.44,6.04,Boulsa,12.66664,-0.57469,BF,17489.0
10704,BF,BFA,Burkina Faso,2019.0,Burkina Faso,BFA,6.85,3.0,7.44,6.04,Bobo-Dioulasso,11.17715,-4.2979,BF,360106.0
10705,BF,BFA,Burkina Faso,2019.0,Burkina Faso,BFA,6.85,3.0,7.44,6.04,Banfora,10.63333,-4.76667,BF,60288.0
10706,BF,BFA,Burkina Faso,2019.0,Burkina Faso,BFA,6.85,3.0,7.44,6.04,Gaoua,10.29917,-3.25083,BF,25104.0
10707,BF,BFA,Burkina Faso,2019.0,Burkina Faso,BFA,6.85,3.0,7.44,6.04,Orodara,10.94917,-4.93417,BF,18632.0
11060,BG,BGR,Bulgaria,2019.0,Bulgaria,BGR,8.08,2.0,8.3,7.76,Yambol,42.48333,26.5,BG,80116.0
11061,BG,BGR,Bulgaria,2019.0,Bulgaria,BGR,8.08,2.0,8.3,7.76,Vratsa,43.21,23.5625,BG,64941.0
11062,BG,BGR,Bulgaria,2019.0,Bulgaria,BGR,8.08,2.0,8.3,7.76,Vidin,43.99,22.8725,BG,54409.0
11063,BG,BGR,Bulgaria,2019.0,Bulgaria,BGR,8.08,2.0,8.3,7.76,Velingrad,42.02754,23.99155,BG,24036.0
11064,BG,BGR,Bulgaria,2019.0,Bulgaria,BGR,8.08,2.0,8.3,7.76,Veliko Turnovo,43.08124,25.62904,BG,66217.0
11065,BG,BGR,Bulgaria,2019.0,Bulgaria,BGR,8.08,2.0,8.3,7.76,Varna,43.21667,27.91667,BG,312770.0
11066,BG,BGR,Bulgaria,2019.0,Bulgaria,BGR,8.08,2.0,8.3,7.76,Targovishte,43.2512,26.57215,BG,37774.0
11067,BG,BGR,Bulgaria,2019.0,Bulgaria,BGR,8.08,2.0,8.3,7.76,Troyan,42.89427,24.71589,BG,21162.0
11068,BG,BGR,Bulgaria,2019.0,Bulgaria,BGR,8.08,2.0,8.3,7.76,Dobrich,43.56667,27.83333,BG,94831.0
11069,BG,BGR,Bulgaria,2019.0,Bulgaria,BGR,8.08,2.0,8.3,7.76,Svishtov,43.61959,25.35044,BG,32256.0
11070,BG,BGR,Bulgaria,2019.0,Bulgaria,BGR,8.08,2.0,8.3,7.76,Svilengrad,41.76667,26.2,BG,19279.0
11071,BG,BGR,Bulgaria,2019.0,Bulgaria,BGR,8.08,2.0,8.3,7.76,Stara Zagora,42.43278,25.64194,BG,143431.0
11072,BG,BGR,Bulgaria,2019.0,Bulgaria,BGR,8.08,2.0,8.3,7.76,Dupnitsa,42.26667,23.11667,BG,34764.0
11073,BG,BGR,Bulgaria,2019.0,Bulgaria,BGR,8.08,2.0,8.3,7.76,Sofia,42.69751,23.32415,BG,1152556.0
11074,BG,BGR,Bulgaria,2019.0,Bulgaria,BGR,8.08,2.0,8.3,7.76,Smolyan,41.58528,24.69194,BG,32069.0
11075,BG,BGR,Bulgaria,2019.0,Bulgaria,BGR,8.08,2.0,8.3,7.76,Sliven,42.68583,26.32917,BG,96368.0
11076,BG,BGR,Bulgaria,2019.0,Bulgaria,BGR,8.08,2.0,8.3,7.76,Silistra,44.11667,27.26667,BG,39715.0
11077,BG,BGR,Bulgaria,2019.0,Bulgaria,BGR,8.08,2.0,8.3,7.76,Shumen,43.27064,26.92286,BG,87283.0
11078,BG,BGR,Bulgaria,2019.0,Bulgaria,BGR,8.08,2.0,8.3,7.76,Sevlievo,43.02583,25.11361,BG,24582.0
11079,BG,BGR,Bulgaria,2019.0,Bulgaria,BGR,8.08,2.0,8.3,7.76,Sandanski,41.56667,23.28333,BG,26459.0
11080,BG,BGR,Bulgaria,2019.0,Bulgaria,BGR,8.08,2.0,8.3,7.76,Samokov,42.337,23.5528,BG,26765.0
11081,BG,BGR,Bulgaria,2019.0,Bulgaria,BGR,8.08,2.0,8.3,7.76,Ruse,43.85639,25.97083,BG,156238.0
11082,BG,BGR,Bulgaria,2019.0,Bulgaria,BGR,8.08,2.0,8.3,7.76,Razgrad,43.53333,26.51667,BG,38285.0
11083,BG,BGR,Bulgaria,2019.0,Bulgaria,BGR,8.08,2.0,8.3,7.76,Rakovski,42.3,24.96667,BG,15782.0
11084,BG,BGR,Bulgaria,2019.0,Bulgaria,BGR,8.08,2.0,8.3,7.76,Popovo,43.35,26.23333,BG,16571.0
11085,BG,BGR,Bulgaria,2019.0,Bulgaria,BGR,8.08,2.0,8.3,7.76,Plovdiv,42.15,24.75,BG,340494.0
